{
  "retail": [
    {
      "name": "Saturn Alexanderplatz",
      "lat": 52.5219,
      "lng": 13.4132,
      "area": "Mitte",
      "type": "saturn"
    },
    {
      "name": "Saturn Europa-Center",
      "lat": 52.5048,
      "lng": 13.3371,
      "area": "Charlottenburg",
      "type": "saturn"
    },
    {
      "name": "MediaMarkt Alexa",
      "lat": 52.5115,
      "lng": 13.4186,
      "area": "Mitte",
      "type": "mediamarkt"
    },
    {
      "name": "MediaMarkt Schonhauser",
      "lat": 52.549,
      "lng": 13.4141,
      "area": "Prenzlauer Berg",
      "type": "mediamarkt"
    },
    {
      "name": "Saturn Mall of Berlin",
      "lat": 52.5094,
      "lng": 13.3765,
      "area": "Mitte",
      "type": "saturn"
    },
    {
      "name": "MediaMarkt Tegel",
      "lat": 52.5623,
      "lng": 13.334,
      "area": "Charlottenburg",
      "type": "mediamarkt"
    },
    {
      "name": "Saturn Eastgate",
      "lat": 52.514,
      "lng": 13.5278,
      "area": "Friedrichshain",
      "type": "saturn"
    },
    {
      "name": "MediaMarkt Steglitz",
      "lat": 52.4575,
      "lng": 13.3266,
      "area": "Charlottenburg",
      "type": "mediamarkt"
    }
  ],
  "galleries": [
    {
      "name": "KW Institute",
      "lat": 52.5268,
      "lng": 13.3958,
      "area": "Mitte"
    },
    {
      "name": "Hamburger Bahnhof - Tiergarten",
      "lat": 52.52818,
      "lng": 13.37149,
      "area": "Mitte"
    },
    {
      "name": "Stiftung Berlinische Galerie",
      "lat": 52.50408,
      "lng": 13.39881,
      "area": "Kreuzberg"
    },
    {
      "name": "Konig Galerie",
      "lat": 52.4987,
      "lng": 13.3774,
      "area": "Kreuzberg"
    },
    {
      "name": "CFA Berlin",
      "lat": 52.5255,
      "lng": 13.3931,
      "area": "Mitte"
    },
    {
      "name": "Spruth Magers",
      "lat": 52.5241,
      "lng": 13.3887,
      "area": "Mitte"
    },
    {
      "name": "Galerie Thomas Schulte",
      "lat": 52.5063,
      "lng": 13.3914,
      "area": "Kreuzberg"
    },
    {
      "name": "Blain|Southern",
      "lat": 52.5231,
      "lng": 13.3948,
      "area": "Mitte"
    },
    {
      "name": "neugerriemschneider",
      "lat": 52.4994,
      "lng": 13.4179,
      "area": "Kreuzberg"
    },
    {
      "name": "Capitain Petzel",
      "lat": 52.5268,
      "lng": 13.4015,
      "area": "Mitte"
    },
    {
      "name": "Kindl Centre",
      "lat": 52.4754,
      "lng": 13.4519,
      "area": "Neukolln"
    },
    {
      "name": "Urban Spree",
      "lat": 52.5068,
      "lng": 13.453,
      "area": "Friedrichshain"
    },
    {
      "name": "Bauhaus-Archiv",
      "lat": 52.50607,
      "lng": 13.35277,
      "area": "Charlottenburg"
    },
    {
      "name": "Br\u00fccke Museum",
      "lat": 52.46682,
      "lng": 13.27455,
      "area": "Charlottenburg"
    },
    {
      "name": "Jugend im Museum e.V.",
      "lat": 52.50257,
      "lng": 13.35892,
      "area": "Mitte"
    },
    {
      "name": "Schwules Museum",
      "lat": 52.50445,
      "lng": 13.3578,
      "area": "Mitte"
    },
    {
      "name": "Stiftung Br\u00f6han-Museum",
      "lat": 52.5189,
      "lng": 13.29517,
      "area": "Charlottenburg"
    },
    {
      "name": "Stiftung Deutsches Technikmuseum Berlin",
      "lat": 52.49863,
      "lng": 13.37684,
      "area": "Mitte"
    },
    {
      "name": "Stiftung Dom\u00e4ne Dahlem",
      "lat": 52.45842,
      "lng": 13.28866,
      "area": "Charlottenburg"
    },
    {
      "name": "Stiftung Georg-Kolbe-Museum",
      "lat": 52.51002,
      "lng": 13.25489,
      "area": "Charlottenburg"
    },
    {
      "name": "Stiftung Stadtmuseum Berlin",
      "lat": 52.51608,
      "lng": 13.40679,
      "area": "Mitte"
    },
    {
      "name": "Werkbundarchiv - Museum der Dinge",
      "lat": 52.50107,
      "lng": 13.42066,
      "area": "Kreuzberg"
    },
    {
      "name": "Haus am Waldsee e.V.",
      "lat": 52.442028,
      "lng": 13.238639,
      "area": "Charlottenburg"
    },
    {
      "name": "Kunst-Werke Berlin - Institute for Contemporary Art",
      "lat": 52.526806,
      "lng": 13.394972,
      "area": "Mitte"
    },
    {
      "name": "K\u00fcnstlerhaus Bethanien (KHB)",
      "lat": 52.496972,
      "lng": 13.418639,
      "area": "Kreuzberg"
    },
    {
      "name": "Alte Nationalgalerie - Museumsinsel",
      "lat": 52.51949,
      "lng": 13.39883,
      "area": "Mitte"
    },
    {
      "name": "Altes Museum mit Antikensammlung - Museumsinsel",
      "lat": 52.519,
      "lng": 13.4003,
      "area": "Mitte"
    },
    {
      "name": "Bodemuseum mit Skulpturensammlung, Museum f\u00fcr Byzantinische Kunst und M\u00fcnzkabinett - Museumsinsel",
      "lat": 52.51551,
      "lng": 13.38475,
      "area": "Mitte"
    },
    {
      "name": "Ethnologisches Museum - Museen Dahlem (Zentralkasse) mit Museum Europ\u00e4ischer Kulturen und Museum f\u00fcr Asiatische Kunst",
      "lat": 52.45732,
      "lng": 13.29288,
      "area": "Charlottenburg"
    },
    {
      "name": "Friedrichswerdersche Kirche - Museumsinsel",
      "lat": 52.51544,
      "lng": 13.39804,
      "area": "Mitte"
    },
    {
      "name": "Gem\u00e4ldegalerie - Kulturforum (Zentralkasse) mit Kunstbibliothek und Kupferstichkabinett",
      "lat": 52.50822,
      "lng": 13.36734,
      "area": "Mitte"
    },
    {
      "name": "Humboldt-Box",
      "lat": 52.51599,
      "lng": 13.40015,
      "area": "Mitte"
    },
    {
      "name": "Kunstgewerbemuseum - Kulturforum",
      "lat": 52.50822,
      "lng": 13.36734,
      "area": "Mitte"
    },
    {
      "name": "Museum Berggruen - Charlottenburg",
      "lat": 52.51895,
      "lng": 13.2958,
      "area": "Charlottenburg"
    },
    {
      "name": "Museum f\u00fcr Fotografie - Charlottenburg",
      "lat": 52.5082,
      "lng": 13.33186,
      "area": "Charlottenburg"
    },
    {
      "name": "Musikinstrumenten-Museum",
      "lat": 52.51001,
      "lng": 13.3711,
      "area": "Mitte"
    },
    {
      "name": "Neues Museum mit \u00c4gyptisches Museum, Museum f\u00fcr Vor- und Fr\u00fchgeschichte - Museumsinsel",
      "lat": 52.5194,
      "lng": 13.39883,
      "area": "Mitte"
    },
    {
      "name": "Pergamonmuseum mit Antikensammlung, Museum f\u00fcr Islamische Kunst, Vorderasiatischem Museum, M\u00fcnzkabinett - Musuemsinsel",
      "lat": 52.5194,
      "lng": 13.39883,
      "area": "Mitte"
    },
    {
      "name": "Sammlung Scharf-Gerstenberg - Charlottenburg",
      "lat": 52.51915,
      "lng": 13.29684,
      "area": "Charlottenburg"
    },
    {
      "name": "Staatsbibliothek",
      "lat": 52.51752,
      "lng": 13.39099,
      "area": "Mitte"
    }
  ],
  "agencies": [
    {
      "name": "ACHTUNG! Berlin",
      "lat": 52.5012,
      "lng": 13.4152,
      "area": "Kreuzberg"
    },
    {
      "name": "Demodern",
      "lat": 52.5035,
      "lng": 13.4489,
      "area": "Kreuzberg"
    },
    {
      "name": "Serviceplan Berlin",
      "lat": 52.5241,
      "lng": 13.4012,
      "area": "Mitte"
    },
    {
      "name": "Scholz & Friends Group GMBH",
      "lat": 52.521966,
      "lng": 13.409005,
      "area": "Mitte"
    },
    {
      "name": "Studio Cosmos",
      "lat": 52.4946,
      "lng": 13.4225,
      "area": "Kreuzberg"
    },
    {
      "name": "Bureau Borsche",
      "lat": 52.501,
      "lng": 13.4301,
      "area": "Kreuzberg"
    },
    {
      "name": "Echo Poster",
      "lat": 52.4998,
      "lng": 13.4187,
      "area": "Kreuzberg"
    },
    {
      "name": "Metadesign",
      "lat": 52.534546,
      "lng": 13.422979,
      "area": "Prenzlauer Berg"
    },
    {
      "name": "DDB Berlin",
      "lat": 52.5068,
      "lng": 13.333,
      "area": "Charlottenburg"
    },
    {
      "name": "Jung von Matt",
      "lat": 52.496604,
      "lng": 13.423414,
      "area": "Kreuzberg"
    },
    {
      "name": "Dayy",
      "lat": 52.508064,
      "lng": 13.320246,
      "area": "Charlottenburg"
    },
    {
      "name": "wirDesign communication AG",
      "lat": 52.537419,
      "lng": 13.4101,
      "area": "Prenzlauer Berg"
    },
    {
      "name": "Strichpunkt",
      "lat": 52.513595,
      "lng": 13.320328,
      "area": "Charlottenburg"
    },
    {
      "name": "Superspring",
      "lat": 52.503926,
      "lng": 13.329834,
      "area": "Charlottenburg"
    },
    {
      "name": "Brightside Studio",
      "lat": 52.507392,
      "lng": 13.416009,
      "area": "Kreuzberg"
    },
    {
      "name": "NORDSONNE IDENTITY",
      "lat": 52.532884,
      "lng": 13.411,
      "area": "Mitte"
    },
    {
      "name": "ffine",
      "lat": 52.518712,
      "lng": 13.456888,
      "area": "Friedrichshain"
    },
    {
      "name": "MoreSleep",
      "lat": 52.506406,
      "lng": 13.412769,
      "area": "Kreuzberg"
    },
    {
      "name": "Laudo",
      "lat": 52.515636,
      "lng": 13.458697,
      "area": "Friedrichshain"
    },
    {
      "name": "Novoto Studio",
      "lat": 52.506855,
      "lng": 13.338555,
      "area": "Charlottenburg"
    },
    {
      "name": "Fons Hickmann M23",
      "lat": 52.504008,
      "lng": 13.332838,
      "area": "Charlottenburg"
    },
    {
      "name": "Studio Grau",
      "lat": 52.506353,
      "lng": 13.423915,
      "area": "Kreuzberg"
    },
    {
      "name": "Tau Berlin",
      "lat": 52.500376,
      "lng": 13.33478,
      "area": "Charlottenburg"
    },
    {
      "name": "Muse Case",
      "lat": 52.500265,
      "lng": 13.321195,
      "area": "Charlottenburg"
    },
    {
      "name": "Zigzag",
      "lat": 52.539197,
      "lng": 13.413559,
      "area": "Prenzlauer Berg"
    },
    {
      "name": "HUisHU",
      "lat": 52.516984,
      "lng": 13.328391,
      "area": "Charlottenburg"
    },
    {
      "name": "CRU",
      "lat": 52.501911,
      "lng": 13.333554,
      "area": "Charlottenburg"
    },
    {
      "name": "Diemer & Schweig",
      "lat": 52.50487,
      "lng": 13.452841,
      "area": "Friedrichshain"
    },
    {
      "name": "Typoint",
      "lat": 52.527101,
      "lng": 13.410391,
      "area": "Mitte"
    },
    {
      "name": "Nutcracker",
      "lat": 52.49253,
      "lng": 13.428876,
      "area": "Kreuzberg"
    },
    {
      "name": "GABC",
      "lat": 52.545312,
      "lng": 13.422533,
      "area": "Prenzlauer Berg"
    },
    {
      "name": "Outermedia",
      "lat": 52.500021,
      "lng": 13.456062,
      "area": "Friedrichshain"
    },
    {
      "name": "Off Label",
      "lat": 52.500564,
      "lng": 13.447402,
      "area": "Kreuzberg"
    },
    {
      "name": "Isarspree",
      "lat": 52.500342,
      "lng": 13.331587,
      "area": "Charlottenburg"
    },
    {
      "name": "Netgenerator",
      "lat": 52.50164,
      "lng": 13.449791,
      "area": "Kreuzberg"
    },
    {
      "name": "Roman Klis",
      "lat": 52.540227,
      "lng": 13.417122,
      "area": "Prenzlauer Berg"
    },
    {
      "name": "denkwerk",
      "lat": 52.518767,
      "lng": 13.447691,
      "area": "Friedrichshain"
    },
    {
      "name": "&WHY",
      "lat": 52.516618,
      "lng": 13.443493,
      "area": "Friedrichshain"
    },
    {
      "name": "muskat",
      "lat": 52.546572,
      "lng": 13.409979,
      "area": "Prenzlauer Berg"
    },
    {
      "name": "Getyourguide Deutschland GMBH",
      "lat": 52.545723,
      "lng": 13.415287,
      "area": "Prenzlauer Berg"
    },
    {
      "name": "Wall GMBH",
      "lat": 52.519491,
      "lng": 13.360341,
      "area": "Mitte"
    },
    {
      "name": "Taboola Germany GMBH",
      "lat": 52.52086,
      "lng": 13.360153,
      "area": "Mitte"
    },
    {
      "name": "Dcmn GMBH",
      "lat": 52.521574,
      "lng": 13.409117,
      "area": "Mitte"
    },
    {
      "name": "Spotify GMBH",
      "lat": 52.516619,
      "lng": 13.388654,
      "area": "Mitte"
    },
    {
      "name": "C3 Creative Code And Content GMBH",
      "lat": 52.521096,
      "lng": 13.408904,
      "area": "Mitte"
    },
    {
      "name": "Osenga Media GMBH",
      "lat": 52.509786,
      "lng": 13.454859,
      "area": "Friedrichshain"
    },
    {
      "name": "Insgluck Gesellschaft Fur Markeninszenierung Mbh",
      "lat": 52.499741,
      "lng": 13.371525,
      "area": "Mitte"
    }
  ],
  "coworking": [
    {
      "name": "Factory Berlin Mitte",
      "lat": 52.5239,
      "lng": 13.4129,
      "area": "Mitte"
    },
    {
      "name": "Factory Berlin Gorlitzer",
      "lat": 52.4983,
      "lng": 13.4368,
      "area": "Kreuzberg"
    },
    {
      "name": "betahaus",
      "lat": 52.5025,
      "lng": 13.4188,
      "area": "Kreuzberg"
    },
    {
      "name": "WeWork Sony Center",
      "lat": 52.5094,
      "lng": 13.3744,
      "area": "Mitte"
    },
    {
      "name": "Ahoy! Berlin",
      "lat": 52.5012,
      "lng": 13.4245,
      "area": "Kreuzberg"
    },
    {
      "name": "rent24 Mitte",
      "lat": 52.523,
      "lng": 13.4073,
      "area": "Mitte"
    },
    {
      "name": "co.up Community",
      "lat": 52.5003,
      "lng": 13.4192,
      "area": "Kreuzberg"
    },
    {
      "name": "Mindspace Berlin",
      "lat": 52.5195,
      "lng": 13.3882,
      "area": "Mitte"
    },
    {
      "name": "Landesarchiv Berlin",
      "lat": 52.579944,
      "lng": 13.31675,
      "area": "Charlottenburg"
    },
    {
      "name": "Stiftung Zentral- und Landesbibliothek Berlin",
      "lat": 52.51525,
      "lng": 13.4045,
      "area": "Mitte"
    }
  ],
  "venues": [
    {
      "name": "Berghain",
      "lat": 52.5109,
      "lng": 13.4429,
      "area": "Friedrichshain"
    },
    {
      "name": "Tresor",
      "lat": 52.51,
      "lng": 13.4186,
      "area": "Mitte"
    },
    {
      "name": "SchwuZ",
      "lat": 52.4754,
      "lng": 13.441,
      "area": "Neukolln"
    },
    {
      "name": "Watergate",
      "lat": 52.5014,
      "lng": 13.4443,
      "area": "Kreuzberg"
    },
    {
      "name": "SO36",
      "lat": 52.4999,
      "lng": 13.4301,
      "area": "Kreuzberg"
    },
    {
      "name": "Lido",
      "lat": 52.4966,
      "lng": 13.4293,
      "area": "Kreuzberg"
    },
    {
      "name": "Festsaal Kreuzberg",
      "lat": 52.4946,
      "lng": 13.4156,
      "area": "Kreuzberg"
    },
    {
      "name": "Kater Blau",
      "lat": 52.5115,
      "lng": 13.4421,
      "area": "Friedrichshain"
    },
    {
      "name": "//about blank",
      "lat": 52.5089,
      "lng": 13.4671,
      "area": "Friedrichshain"
    },
    {
      "name": "Monarch",
      "lat": 52.4988,
      "lng": 13.4261,
      "area": "Kreuzberg"
    },
    {
      "name": "Silent Green",
      "lat": 52.5465,
      "lng": 13.3595,
      "area": "Wedding"
    },
    {
      "name": "ATZE Musiktheater",
      "lat": 52.543278,
      "lng": 13.351556,
      "area": "Mitte"
    },
    {
      "name": "Das Helmi",
      "lat": 52.543083,
      "lng": 13.414972,
      "area": "Prenzlauer Berg"
    },
    {
      "name": "Das Weite Theater",
      "lat": 52.516944,
      "lng": 13.477444,
      "area": "Friedrichshain"
    },
    {
      "name": "English Theatre Berlin",
      "lat": 52.48725,
      "lng": 13.3885,
      "area": "Kreuzberg"
    },
    {
      "name": "Fliegendes Theater",
      "lat": 52.489861,
      "lng": 13.422056,
      "area": "Kreuzberg"
    },
    {
      "name": "Gob Squad",
      "lat": 52.499722,
      "lng": 13.43625,
      "area": "Kreuzberg"
    },
    {
      "name": "Hans Wurst Nachfahren",
      "lat": 52.4965,
      "lng": 13.355417,
      "area": "Charlottenburg"
    },
    {
      "name": "Lubricat",
      "lat": 52.5,
      "lng": 13.418944,
      "area": "Kreuzberg"
    },
    {
      "name": "Novoflot",
      "lat": 52.511056,
      "lng": 13.411389,
      "area": "Kreuzberg"
    },
    {
      "name": "Platypus Theater",
      "lat": 52.503389,
      "lng": 13.394722,
      "area": "Kreuzberg"
    },
    {
      "name": "Schlossplatztheater",
      "lat": 52.445056,
      "lng": 13.574361,
      "area": "Neukolln"
    },
    {
      "name": "SheShePop",
      "lat": 52.503667,
      "lng": 13.423444,
      "area": "Kreuzberg"
    },
    {
      "name": "Tanzcompanie Rubato",
      "lat": 52.491167,
      "lng": 13.447083,
      "area": "Kreuzberg"
    },
    {
      "name": "Tanztage Berlin",
      "lat": 52.525889,
      "lng": 13.401611,
      "area": "Mitte"
    },
    {
      "name": "Theater Thikw\u00e0",
      "lat": 52.487222,
      "lng": 13.388528,
      "area": "Kreuzberg"
    },
    {
      "name": "Theater auf der Zitadelle",
      "lat": 52.540944,
      "lng": 13.212056,
      "area": "Charlottenburg"
    },
    {
      "name": "Theater o.N.",
      "lat": 52.535,
      "lng": 13.416222,
      "area": "Mitte"
    },
    {
      "name": "Zeitgen\u00f6ssische Oper Berlin",
      "lat": 52.532639,
      "lng": 13.412028,
      "area": "Mitte"
    },
    {
      "name": "andcompany & Co",
      "lat": 52.503972,
      "lng": 13.424028,
      "area": "Kreuzberg"
    },
    {
      "name": "aufBruch",
      "lat": 52.542222,
      "lng": 13.413889,
      "area": "Prenzlauer Berg"
    },
    {
      "name": "cie toula limnaios",
      "lat": 52.528389,
      "lng": 13.425667,
      "area": "Prenzlauer Berg"
    },
    {
      "name": "Ballhaus Ost",
      "lat": 52.543083,
      "lng": 13.414944,
      "area": "Prenzlauer Berg"
    },
    {
      "name": "Dock 11",
      "lat": 52.536667,
      "lng": 13.408028,
      "area": "Prenzlauer Berg"
    },
    {
      "name": "Heimathafen Neuk\u00f6lln",
      "lat": 52.476972,
      "lng": 13.439194,
      "area": "Neukolln"
    },
    {
      "name": "Laborgras",
      "lat": 52.496806,
      "lng": 13.421389,
      "area": "Kreuzberg"
    },
    {
      "name": "Tanzfabrik Berlin e.V.",
      "lat": 52.551778,
      "lng": 13.374944,
      "area": "Mitte"
    },
    {
      "name": "Theaterkapelle",
      "lat": 52.512333,
      "lng": 13.460778,
      "area": "Friedrichshain"
    },
    {
      "name": "ada Studio & B\u00fchne",
      "lat": 52.551833,
      "lng": 13.374417,
      "area": "Mitte"
    },
    {
      "name": "Dokumentationszentrum NS-Zwangsarbeit Berlin-Sch\u00f6neweide",
      "lat": 52.453194,
      "lng": 13.518056,
      "area": "Neukolln"
    },
    {
      "name": "Gedenkst\u00e4tte Deutscher Widerstand",
      "lat": 52.507722,
      "lng": 13.3635,
      "area": "Mitte"
    },
    {
      "name": "Stiftung Berliner Mauer",
      "lat": 52.535361,
      "lng": 13.389833,
      "area": "Mitte"
    },
    {
      "name": "Stiftung Gedenkst\u00e4tte Berlin-Hohensch\u00f6nhausen",
      "lat": 52.541806,
      "lng": 13.501417,
      "area": "Friedrichshain"
    },
    {
      "name": "Stiftung Topographie des Terrors",
      "lat": 52.506694,
      "lng": 13.383667,
      "area": "Kreuzberg"
    },
    {
      "name": "Tr\u00e4gerverein Haus der Wannseekonferenz",
      "lat": 52.432056,
      "lng": 13.165028,
      "area": "Charlottenburg"
    },
    {
      "name": "Jagdschloss Grunewald (Schloss; Jagdzeugmagazin)",
      "lat": 52.46703,
      "lng": 13.26148,
      "area": "Charlottenburg"
    },
    {
      "name": "Park Glienicke (Schloss; Casino)",
      "lat": 52.41123,
      "lng": 13.09786,
      "area": "Charlottenburg"
    },
    {
      "name": "Pfaueninsel",
      "lat": 52.43449,
      "lng": 13.13125,
      "area": "Charlottenburg"
    },
    {
      "name": "Schloss Charlottenburg (Neuer Pavillon; Belvedere; Mausoleum)",
      "lat": 52.52064,
      "lng": 13.29533,
      "area": "Charlottenburg"
    },
    {
      "name": "Schloss Sch\u00f6nhausen",
      "lat": 52.57838,
      "lng": 13.40568,
      "area": "Prenzlauer Berg"
    },
    {
      "name": "B\u00fchnen am K\u00fcrf\u00fcrstendamm",
      "lat": 52.501944,
      "lng": 13.323639,
      "area": "Charlottenburg"
    },
    {
      "name": "Schlosspark Theater",
      "lat": 52.454694,
      "lng": 13.317972,
      "area": "Charlottenburg"
    },
    {
      "name": "Friedrichstadt-Palast",
      "lat": 52.523917,
      "lng": 13.388861,
      "area": "Mitte"
    },
    {
      "name": "Berliner Ensemble",
      "lat": 52.522056,
      "lng": 13.386417,
      "area": "Mitte"
    },
    {
      "name": "Deutsches Theater / Kammerspiele",
      "lat": 52.523917,
      "lng": 13.382083,
      "area": "Mitte"
    },
    {
      "name": "Hebbel am Ufer (HAU 1, 2, 3)",
      "lat": 52.499056,
      "lng": 13.386194,
      "area": "Kreuzberg"
    },
    {
      "name": "Maxim Gorki Theater",
      "lat": 52.519,
      "lng": 13.395611,
      "area": "Mitte"
    },
    {
      "name": "Renaissance Theater",
      "lat": 52.510306,
      "lng": 13.324083,
      "area": "Charlottenburg"
    },
    {
      "name": "Schaub\u00fchne am Lehniner Platz",
      "lat": 52.498694,
      "lng": 13.302833,
      "area": "Charlottenburg"
    },
    {
      "name": "Volksb\u00fchne",
      "lat": 52.52725,
      "lng": 13.412389,
      "area": "Mitte"
    },
    {
      "name": "J\u00fcdisches Theater",
      "lat": 52.502111,
      "lng": 13.329306,
      "area": "Charlottenburg"
    },
    {
      "name": "Grips Theater",
      "lat": 52.518444,
      "lng": 13.342417,
      "area": "Charlottenburg"
    },
    {
      "name": "Theater an der Parkaue",
      "lat": 52.516806,
      "lng": 13.477972,
      "area": "Friedrichshain"
    },
    {
      "name": "Ballhaus Naunynstra\u00dfe",
      "lat": 52.502,
      "lng": 13.421333,
      "area": "Kreuzberg"
    },
    {
      "name": "Canstanza Macras",
      "lat": 52.517861,
      "lng": 13.411806,
      "area": "Mitte"
    },
    {
      "name": "Kleines Theater am S\u00fcdwestkorso GmbH",
      "lat": 52.473306,
      "lng": 13.322361,
      "area": "Charlottenburg"
    },
    {
      "name": "Neuk\u00f6llner Oper",
      "lat": 52.477556,
      "lng": 13.439472,
      "area": "Neukolln"
    },
    {
      "name": "Nico and the Navigators",
      "lat": 52.539722,
      "lng": 13.417583,
      "area": "Prenzlauer Berg"
    },
    {
      "name": "Rimini Protokoll",
      "lat": 52.497472,
      "lng": 13.385861,
      "area": "Kreuzberg"
    },
    {
      "name": "Sophiens\u00e6le",
      "lat": 52.525861,
      "lng": 13.401611,
      "area": "Mitte"
    },
    {
      "name": "Theater '89",
      "lat": 52.527639,
      "lng": 13.390222,
      "area": "Mitte"
    },
    {
      "name": "Theater Strahl",
      "lat": 52.488333,
      "lng": 13.345194,
      "area": "Charlottenburg"
    },
    {
      "name": "Theater im Palais",
      "lat": 52.518528,
      "lng": 13.395667,
      "area": "Mitte"
    },
    {
      "name": "Theaterdiscounter",
      "lat": 52.517778,
      "lng": 13.412167,
      "area": "Mitte"
    },
    {
      "name": "Vaganten B\u00fchne Gemeinn\u00fctzige",
      "lat": 52.50575,
      "lng": 13.328833,
      "area": "Charlottenburg"
    },
    {
      "name": "ConSense - Ges. zur F\u00f6rderung von Kultur mbH (Kulturbrauerei)",
      "lat": 52.538306,
      "lng": 13.413,
      "area": "Prenzlauer Berg"
    },
    {
      "name": "Neue Babylon Berlin GmbH",
      "lat": 52.525861,
      "lng": 13.4115,
      "area": "Mitte"
    },
    {
      "name": "RambaZamba e.V.",
      "lat": 52.539944,
      "lng": 13.413583,
      "area": "Prenzlauer Berg"
    },
    {
      "name": "ufa-fabrik e.V.",
      "lat": 52.454583,
      "lng": 13.381833,
      "area": "Kreuzberg"
    },
    {
      "name": "LesArt - Berliner Zentrum f\u00fcr Kinder- und Jugendliteratur",
      "lat": 52.52525,
      "lng": 13.405083,
      "area": "Mitte"
    },
    {
      "name": "Literarisches Colloquium Berlin (LCB)",
      "lat": 52.422778,
      "lng": 13.1785,
      "area": "Charlottenburg"
    },
    {
      "name": "Literaturforum im Brecht-Haus",
      "lat": 52.528972,
      "lng": 13.384889,
      "area": "Mitte"
    },
    {
      "name": "Literaturhaus Berlin",
      "lat": 52.502194,
      "lng": 13.326806,
      "area": "Charlottenburg"
    },
    {
      "name": "literaturWERKstatt berlin",
      "lat": 52.539444,
      "lng": 13.414417,
      "area": "Prenzlauer Berg"
    },
    {
      "name": "Konzerthaus Berlin / Schauspielhaus am Gendarmenmarkt",
      "lat": 52.513639,
      "lng": 13.391778,
      "area": "Mitte"
    },
    {
      "name": "Rundfunk-Orchester und -Ch\u00f6re GmbH",
      "lat": 52.513361,
      "lng": 13.391083,
      "area": "Mitte"
    },
    {
      "name": "Stiftung Berliner Philharmoniker",
      "lat": 52.509806,
      "lng": 13.369722,
      "area": "Mitte"
    },
    {
      "name": "Sasha Waltz & Guests",
      "lat": 52.525361,
      "lng": 13.401333,
      "area": "Mitte"
    },
    {
      "name": "Deutsche Oper Berlin",
      "lat": 52.512222,
      "lng": 13.308333,
      "area": "Charlottenburg"
    },
    {
      "name": "Komische Oper Berlin",
      "lat": 52.515972,
      "lng": 13.386889,
      "area": "Mitte"
    },
    {
      "name": "Staatsballett",
      "lat": 52.512056,
      "lng": 13.317361,
      "area": "Charlottenburg"
    },
    {
      "name": "Staatsoper Unter den Linden",
      "lat": 52.516944,
      "lng": 13.394639,
      "area": "Mitte"
    }
  ],
  "schools": [
    {
      "name": "UdK Berlin",
      "lat": 52.5076,
      "lng": 13.3278,
      "area": "Charlottenburg"
    },
    {
      "name": "Weissensee Academy",
      "lat": 52.5561,
      "lng": 13.4653,
      "area": "Weissensee"
    },
    {
      "name": "HTW Berlin (Design)",
      "lat": 52.4571,
      "lng": 13.5261,
      "area": "Schoneweide"
    },
    {
      "name": "Design Akademie Berlin",
      "lat": 52.5024,
      "lng": 13.4198,
      "area": "Kreuzberg"
    },
    {
      "name": "SRH Berlin (Design)",
      "lat": 52.5159,
      "lng": 13.389,
      "area": "Mitte"
    }
  ],
  "competitors": [
    {
      "name": "Apple Store Kurfürstendamm",
      "lat": 52.5025,
      "lng": 13.3285,
      "area": "Charlottenburg",
      "type": "apple"
    },
    {
      "name": "Samsung KaDeWe",
      "lat": 52.5019,
      "lng": 13.3417,
      "area": "Charlottenburg",
      "type": "samsung"
    },
    {
      "name": "Samsung Alexa",
      "lat": 52.5115,
      "lng": 13.4186,
      "area": "Mitte",
      "type": "samsung"
    },
    {
      "name": "Google Store Berlin",
      "lat": 52.5094,
      "lng": 13.3765,
      "area": "Mitte",
      "type": "google"
    }
  ]
}