{
  "retail": [
    {
      "name": "Westfield London",
      "lat": 51.5072,
      "lng": -0.2202,
      "area": "Camden",
      "type": "shopping_destination"
    },
    {
      "name": "Coal Drops Yard",
      "lat": 51.5359,
      "lng": -0.1262,
      "area": "King's Cross",
      "type": "shopping_destination"
    },
    {
      "name": "Westfield Stratford City",
      "lat": 51.5434,
      "lng": -0.0064,
      "area": "Stratford",
      "type": "shopping_destination"
    },
    {
      "name": "Carnaby Street",
      "lat": 51.5138,
      "lng": -0.1396,
      "area": "West End",
      "type": "retail_corridor"
    },
    {
      "name": "Covent Garden Piazza",
      "lat": 51.5118,
      "lng": -0.1242,
      "area": "West End",
      "type": "retail_corridor"
    },
    {
      "name": "Harrods",
      "lat": 51.4995,
      "lng": -0.1631,
      "area": "West End",
      "type": "department_store"
    },
    {
      "name": "John Lewis Oxford Street",
      "lat": 51.5145,
      "lng": -0.1463,
      "area": "West End",
      "type": "department_store"
    },
    {
      "name": "Selfridges Oxford Street",
      "lat": 51.5146,
      "lng": -0.1528,
      "area": "West End",
      "type": "department_store"
    },
    {
      "name": "Nothing Store Soho",
      "lat": 51.512903,
      "lng": -0.134006,
      "area": "West End",
      "type": "nothing_store"
    }
  ],
  "galleries": [
    {
      "name": "Antique Breadboard Museum",
      "lat": 51.463695,
      "lng": -0.218397,
      "area": "Brixton",
      "district": "Wandsworth",
      "plz": "SW15 1NY"
    },
    {
      "name": "Black Cultural Archives",
      "lat": 51.46,
      "lng": -0.112992,
      "area": "Brixton",
      "district": "Lambeth"
    },
    {
      "name": "Cooke Latham",
      "lat": 51.479149,
      "lng": -0.167362,
      "area": "Brixton",
      "district": "Wandsworth"
    },
    {
      "name": "Dorich House Museum",
      "lat": 51.432825,
      "lng": -0.261524,
      "area": "Brixton",
      "district": "Kingston upon Thames"
    },
    {
      "name": "Eel Pie Island Museum",
      "lat": 51.448361,
      "lng": -0.325634,
      "area": "Brixton",
      "district": "Richmond upon Thames",
      "plz": "TW1 3AB"
    },
    {
      "name": "Eleven",
      "lat": 51.442456,
      "lng": -0.349276,
      "area": "Brixton",
      "district": "Richmond upon Thames"
    },
    {
      "name": "Foss Fine Art",
      "lat": 51.45656,
      "lng": -0.163652,
      "area": "Brixton",
      "district": "Wandsworth"
    },
    {
      "name": "Fulham Palace",
      "lat": 51.470031,
      "lng": -0.213626,
      "area": "Brixton",
      "district": "Hammersmith and Fulham"
    },
    {
      "name": "Gaglirdi Gallery",
      "lat": 51.480809,
      "lng": -0.1839,
      "area": "Brixton",
      "district": "Kensington and Chelsea",
      "plz": "SW10 0TX"
    },
    {
      "name": "Grove Collective",
      "lat": 51.47539,
      "lng": -0.17529,
      "area": "Brixton",
      "district": "Wandsworth"
    },
    {
      "name": "Ham House and Garden",
      "lat": 51.443165,
      "lng": -0.314898,
      "area": "Brixton",
      "district": "Richmond upon Thames"
    },
    {
      "name": "Hampton Court Palace",
      "lat": 51.403339,
      "lng": -0.336076,
      "area": "Brixton",
      "district": "Richmond upon Thames"
    },
    {
      "name": "Honeywood Museum",
      "lat": 51.364606,
      "lng": -0.163497,
      "area": "Brixton",
      "district": "Sutton"
    },
    {
      "name": "JGM Gallery",
      "lat": 51.479244,
      "lng": -0.169388,
      "area": "Brixton",
      "district": "Wandsworth"
    },
    {
      "name": "Kingston Museum (and Heritage Service)",
      "lat": 51.409035,
      "lng": -0.298724,
      "area": "Brixton",
      "district": "Kingston upon Thames"
    },
    {
      "name": "Knight Webb Gallery",
      "lat": 51.478596,
      "lng": -0.170494,
      "area": "Brixton",
      "district": "Wandsworth"
    },
    {
      "name": "Kristin Hjellegjerde",
      "lat": 51.459301,
      "lng": -0.187224,
      "area": "Brixton",
      "district": "Wandsworth"
    },
    {
      "name": "La Galleria",
      "lat": 51.444332,
      "lng": -0.190643,
      "area": "Brixton",
      "district": "Wandsworth"
    },
    {
      "name": "Maestro Arts",
      "lat": 51.461352,
      "lng": -0.196559,
      "area": "Brixton",
      "district": "Wandsworth"
    },
    {
      "name": "Marble Hill House",
      "lat": 51.449001,
      "lng": -0.311747,
      "area": "Brixton",
      "district": "Richmond upon Thames"
    },
    {
      "name": "Museum of Croydon",
      "lat": 51.371384,
      "lng": -0.097932,
      "area": "Brixton",
      "district": "Croydon"
    },
    {
      "name": "Museum of Richmond",
      "lat": 51.458302,
      "lng": -0.305012,
      "area": "Brixton",
      "district": "Richmond upon Thames"
    },
    {
      "name": "Museum of Wimbledon",
      "lat": 51.422837,
      "lng": -0.215075,
      "area": "Brixton",
      "district": "Merton"
    },
    {
      "name": "Northcote Gallery Battersea",
      "lat": 51.456362,
      "lng": -0.164207,
      "area": "Brixton",
      "district": "Wandsworth"
    },
    {
      "name": "Offer Waterman & Co",
      "lat": 51.481778,
      "lng": -0.179246,
      "area": "Brixton",
      "district": "Kensington and Chelsea"
    },
    {
      "name": "Orleans House Gallery",
      "lat": 51.446818,
      "lng": -0.317512,
      "area": "Brixton",
      "district": "Richmond upon Thames"
    },
    {
      "name": "Photofusion Gallery",
      "lat": 51.461357,
      "lng": -0.112334,
      "area": "Brixton",
      "district": "Lambeth"
    },
    {
      "name": "Plus One Gallery",
      "lat": 51.4659,
      "lng": -0.19315,
      "area": "Brixton",
      "district": "Hammersmith and Fulham"
    },
    {
      "name": "Quantum Contemporary Art",
      "lat": 51.47422,
      "lng": -0.15817,
      "area": "Brixton",
      "district": "Wandsworth"
    },
    {
      "name": "San Mei Gallery",
      "lat": 51.470868,
      "lng": -0.108544,
      "area": "Brixton",
      "district": "Lambeth"
    },
    {
      "name": "Sarah Myerscough Gallery",
      "lat": 51.470772,
      "lng": -0.255485,
      "area": "Brixton",
      "district": "Richmond upon Thames"
    },
    {
      "name": "Sprout Community Arts",
      "lat": 51.423512,
      "lng": -0.145628,
      "area": "Brixton",
      "district": "Wandsworth"
    },
    {
      "name": "Stanley Picker Gallery",
      "lat": 51.40501,
      "lng": -0.298289,
      "area": "Brixton",
      "district": "Kingston upon Thames",
      "plz": "KT1 2QJ"
    },
    {
      "name": "Strawberry Hill House",
      "lat": 51.437706,
      "lng": -0.333172,
      "area": "Brixton",
      "district": "Richmond upon Thames"
    },
    {
      "name": "Studio Voltaire",
      "lat": 51.462095,
      "lng": -0.134618,
      "area": "Brixton",
      "district": "Lambeth",
      "plz": "SW4 7JR"
    },
    {
      "name": "The Chocolate Museum",
      "lat": 51.463925,
      "lng": -0.116303,
      "area": "Brixton",
      "district": "Lambeth"
    },
    {
      "name": "The Cynthia Corbett Gallery",
      "lat": 51.414998,
      "lng": -0.22121,
      "area": "Brixton",
      "district": "Merton"
    },
    {
      "name": "The Sunday Painter",
      "lat": 51.479165,
      "lng": -0.123452,
      "area": "Brixton",
      "district": "Lambeth",
      "plz": "SW8 1XA"
    },
    {
      "name": "Turner's House",
      "lat": 51.45381,
      "lng": -0.316223,
      "area": "Brixton",
      "district": "Richmond upon Thames",
      "plz": "TW1 2LR"
    },
    {
      "name": "Van Gogh House London",
      "lat": 51.474509,
      "lng": -0.115176,
      "area": "Brixton",
      "district": "Lambeth"
    },
    {
      "name": "Wandle Industrial Museum",
      "lat": 51.401752,
      "lng": -0.166466,
      "area": "Brixton",
      "district": "Merton"
    },
    {
      "name": "Whitehall Historic House",
      "lat": 51.358856,
      "lng": -0.215643,
      "area": "Brixton",
      "district": "Sutton"
    },
    {
      "name": "Wimbledon Lawn Tennis Museum",
      "lat": 51.433202,
      "lng": -0.212459,
      "area": "Brixton",
      "district": "Merton"
    },
    {
      "name": "World Rugby Museum",
      "lat": 51.454798,
      "lng": -0.339157,
      "area": "Brixton",
      "district": "Richmond upon Thames"
    },
    {
      "name": "2 Willow Road",
      "lat": 51.556656,
      "lng": -0.167572,
      "area": "Camden",
      "district": "Camden"
    },
    {
      "name": "AALondon Gallery",
      "lat": 51.491728,
      "lng": -0.255679,
      "area": "Camden",
      "district": "Hounslow"
    },
    {
      "name": "Ambika P3",
      "lat": 51.522023,
      "lng": -0.154599,
      "area": "Camden",
      "district": "Westminster"
    },
    {
      "name": "Barnet Museum (and Local History Society)",
      "lat": 51.652381,
      "lng": -0.200718,
      "area": "Camden",
      "district": "Barnet"
    },
    {
      "name": "Bartha Contemporary",
      "lat": 51.513711,
      "lng": -0.199526,
      "area": "Camden",
      "district": "Kensington and Chelsea"
    },
    {
      "name": "Bentley Priory Museum",
      "lat": 51.626012,
      "lng": -0.331493,
      "area": "Camden",
      "district": "Harrow"
    },
    {
      "name": "Boston Manor House",
      "lat": 51.491907,
      "lng": -0.318421,
      "area": "Camden",
      "district": "Hounslow",
      "plz": "TW8 9JX"
    },
    {
      "name": "Brent Museum and Archives",
      "lat": 51.546144,
      "lng": -0.22735,
      "area": "Camden",
      "district": "Brent"
    },
    {
      "name": "Burgh House and Hampstead Museum",
      "lat": 51.557675,
      "lng": -0.17349,
      "area": "Camden",
      "district": "Camden"
    },
    {
      "name": "Camden Art Centre",
      "lat": 51.55125,
      "lng": -0.183491,
      "area": "Camden",
      "district": "Camden",
      "plz": "NW3 6DG"
    },
    {
      "name": "Catto Gallery",
      "lat": 51.557997,
      "lng": -0.176882,
      "area": "Camden",
      "district": "Camden"
    },
    {
      "name": "Chiswick House & Gardens",
      "lat": 51.48376,
      "lng": -0.258662,
      "area": "Camden",
      "district": "Hounslow",
      "plz": "W4 2RP"
    },
    {
      "name": "Contemporary Applied Arts",
      "lat": 51.520921,
      "lng": -0.152554,
      "area": "Camden",
      "district": "Westminster",
      "plz": "W1U 5QG"
    },
    {
      "name": "Dellasposa",
      "lat": 51.512872,
      "lng": -0.17493,
      "area": "Camden",
      "district": "Westminster"
    },
    {
      "name": "Emery Walker's House",
      "lat": 51.48983,
      "lng": -0.242442,
      "area": "Camden",
      "district": "Hammersmith and Fulham",
      "plz": "W6 9TS"
    },
    {
      "name": "Felix & Spear",
      "lat": 51.504988,
      "lng": -0.305158,
      "area": "Camden",
      "district": "Ealing"
    },
    {
      "name": "Fenton House and Garden",
      "lat": 51.55841,
      "lng": -0.178553,
      "area": "Camden",
      "district": "Camden"
    },
    {
      "name": "Five Years",
      "lat": 51.565714,
      "lng": -0.131635,
      "area": "Camden",
      "district": "Islington"
    },
    {
      "name": "Freud Museum",
      "lat": 51.547915,
      "lng": -0.175669,
      "area": "Camden",
      "district": "Camden"
    },
    {
      "name": "Graffik Gallery",
      "lat": 51.518846,
      "lng": -0.20585,
      "area": "Camden",
      "district": "Kensington and Chelsea"
    },
    {
      "name": "Great Western Studios",
      "lat": 51.52069,
      "lng": -0.194734,
      "area": "Camden",
      "district": "Westminster"
    },
    {
      "name": "Gunnersbury Park Museum",
      "lat": 51.499034,
      "lng": -0.284756,
      "area": "Camden",
      "district": "Hounslow"
    },
    {
      "name": "Harlesden High Street",
      "lat": 51.535877,
      "lng": -0.247042,
      "area": "Camden",
      "district": "Brent"
    },
    {
      "name": "Headstone Manor & Museum",
      "lat": 51.593965,
      "lng": -0.353506,
      "area": "Camden",
      "district": "Harrow"
    },
    {
      "name": "Heath Robinson Museum",
      "lat": 51.591975,
      "lng": -0.385112,
      "area": "Camden",
      "district": "Harrow"
    },
    {
      "name": "Highgate Contemporary Art",
      "lat": 51.594564,
      "lng": -0.114916,
      "area": "Camden",
      "district": "Haringey"
    },
    {
      "name": "Hillingdon Local Studies, Archives and Museum",
      "lat": 51.544683,
      "lng": -0.47673,
      "area": "Camden",
      "district": "Hillingdon"
    },
    {
      "name": "Hogarth House",
      "lat": 51.486507,
      "lng": -0.253419,
      "area": "Camden",
      "district": "Hounslow"
    },
    {
      "name": "Hogarth's House",
      "lat": 51.487015,
      "lng": -0.255024,
      "area": "Camden",
      "district": "Hounslow",
      "plz": "W4 2QN"
    },
    {
      "name": "Imperial College Healthcare Charity Art Collection at",
      "lat": 51.516885,
      "lng": -0.172052,
      "area": "Camden",
      "district": "Westminster"
    },
    {
      "name": "Islington Arts Factory",
      "lat": 51.553711,
      "lng": -0.121265,
      "area": "Camden",
      "district": "Islington"
    },
    {
      "name": "JW3",
      "lat": 51.550911,
      "lng": -0.184817,
      "area": "Camden",
      "district": "Camden",
      "plz": "NW3 6ET"
    },
    {
      "name": "Keats House",
      "lat": 51.555063,
      "lng": -0.166352,
      "area": "Camden",
      "district": "Camden"
    },
    {
      "name": "Kelmscott Manor",
      "lat": 51.49007,
      "lng": -0.233934,
      "area": "Camden",
      "district": "Hammersmith and Fulham"
    },
    {
      "name": "Kenwood House (known as the Iveagh Bequest)",
      "lat": 51.570824,
      "lng": -0.166021,
      "area": "Camden",
      "district": "Camden"
    },
    {
      "name": "Kew Palace",
      "lat": 51.484762,
      "lng": -0.289611,
      "area": "Camden",
      "district": "Richmond upon Thames"
    },
    {
      "name": "K\u00d6NIG London",
      "lat": 51.518231,
      "lng": -0.166788,
      "area": "Camden",
      "district": "Westminster"
    },
    {
      "name": "LUX",
      "lat": 51.568341,
      "lng": -0.143057,
      "area": "Camden",
      "district": "Camden",
      "plz": "N19 5JF"
    },
    {
      "name": "Lahd Gallery",
      "lat": 51.55771,
      "lng": -0.176922,
      "area": "Camden",
      "district": "Camden"
    },
    {
      "name": "Lisson Gallery 1",
      "lat": 51.520576,
      "lng": -0.166555,
      "area": "Camden",
      "district": "Westminster"
    },
    {
      "name": "Lisson Gallery 2",
      "lat": 51.520393,
      "lng": -0.168077,
      "area": "Camden",
      "district": "Westminster"
    },
    {
      "name": "Madame Tussauds",
      "lat": 51.522965,
      "lng": -0.155051,
      "area": "Camden",
      "district": "Westminster"
    },
    {
      "name": "Marylebone Cricket Club Museum",
      "lat": 51.528037,
      "lng": -0.171475,
      "area": "Camden",
      "district": "Westminster"
    },
    {
      "name": "Michael Hoppen Gallery",
      "lat": 51.523233,
      "lng": -0.218899,
      "area": "Camden",
      "district": "Kensington and Chelsea"
    },
    {
      "name": "Museum of Brands",
      "lat": 51.515862,
      "lng": -0.209527,
      "area": "Camden",
      "district": "Kensington and Chelsea"
    },
    {
      "name": "Museum of Brands",
      "lat": 51.5163,
      "lng": -0.21102,
      "area": "Camden",
      "district": "Kensington and Chelsea",
      "plz": "W11 1QT"
    },
    {
      "name": "Museum of Domestic Design and Architecture",
      "lat": 51.595614,
      "lng": -0.24034,
      "area": "Camden",
      "district": "Barnet"
    },
    {
      "name": "Musical Museum",
      "lat": 51.487399,
      "lng": -0.291568,
      "area": "Camden",
      "district": "Hounslow"
    },
    {
      "name": "OPEN Ealing",
      "lat": 51.513877,
      "lng": -0.306039,
      "area": "Camden",
      "district": "Ealing"
    },
    {
      "name": "Osterley Park and House",
      "lat": 51.488981,
      "lng": -0.350183,
      "area": "Camden",
      "district": "Hounslow"
    },
    {
      "name": "PM/AM",
      "lat": 51.517722,
      "lng": -0.165185,
      "area": "Camden",
      "district": "Westminster"
    },
    {
      "name": "Patrick Heide Contemporary Art",
      "lat": 51.524383,
      "lng": -0.168645,
      "area": "Camden",
      "district": "Westminster"
    },
    {
      "name": "Pitzhanger Manor & Gallery",
      "lat": 51.510907,
      "lng": -0.307115,
      "area": "Camden",
      "district": "Ealing",
      "plz": "W5 5EQ"
    },
    {
      "name": "Royal Academy of Music Museum",
      "lat": 51.522999,
      "lng": -0.150758,
      "area": "Camden",
      "district": "Westminster"
    },
    {
      "name": "Royal Air Force Museum London (RAF)",
      "lat": 51.598446,
      "lng": -0.236592,
      "area": "Camden",
      "district": "Barnet"
    },
    {
      "name": "Stephen Wiltshire Gallery",
      "lat": 51.511535,
      "lng": -0.19196,
      "area": "Camden",
      "district": "Westminster",
      "plz": "W2 4HU"
    },
    {
      "name": "Studio West",
      "lat": 51.5164,
      "lng": -0.20607,
      "area": "Camden",
      "district": "Kensington and Chelsea"
    },
    {
      "name": "Syon House & Gardens",
      "lat": 51.4768,
      "lng": -0.31249,
      "area": "Camden",
      "district": "Hounslow",
      "plz": "TW8 8JF"
    },
    {
      "name": "Taymour Grahne - Holland Park",
      "lat": 51.507294,
      "lng": -0.207964,
      "area": "Camden",
      "district": "Kensington and Chelsea"
    },
    {
      "name": "Taymour Grahne - Holland Park",
      "lat": 51.515206,
      "lng": -0.199698,
      "area": "Camden",
      "district": "Kensington and Chelsea"
    },
    {
      "name": "Taymour Grahne Projects - The Artist Room",
      "lat": 51.514732,
      "lng": -0.20159,
      "area": "Camden",
      "district": "Kensington and Chelsea"
    },
    {
      "name": "The Cob Gallery",
      "lat": 51.540652,
      "lng": -0.136442,
      "area": "Camden",
      "district": "Camden"
    },
    {
      "name": "The Lemongrove Gallery",
      "lat": 51.492205,
      "lng": -0.261769,
      "area": "Camden",
      "district": "Hounslow"
    },
    {
      "name": "The London Museum of Water and Steam",
      "lat": 51.488545,
      "lng": -0.288953,
      "area": "Camden",
      "district": "Hounslow"
    },
    {
      "name": "The Muse",
      "lat": 51.51792,
      "lng": -0.20683,
      "area": "Camden",
      "district": "Kensington and Chelsea"
    },
    {
      "name": "The Rowley Gallery",
      "lat": 51.506268,
      "lng": -0.193201,
      "area": "Camden",
      "district": "Kensington and Chelsea"
    },
    {
      "name": "The Sherlock Holmes Museum",
      "lat": 51.523749,
      "lng": -0.15858,
      "area": "Camden",
      "district": "Westminster"
    },
    {
      "name": "The Showroom",
      "lat": 51.52345,
      "lng": -0.172806,
      "area": "Camden",
      "district": "Westminster",
      "plz": "NW8 8PQ"
    },
    {
      "name": "The Stephens Collection",
      "lat": 51.5961,
      "lng": -0.192996,
      "area": "Camden",
      "district": "Barnet"
    },
    {
      "name": "Usurp Art",
      "lat": 51.579041,
      "lng": -0.349383,
      "area": "Camden",
      "district": "Harrow"
    },
    {
      "name": "Anaesthetesia Heritage Centre",
      "lat": 51.518883,
      "lng": -0.14353,
      "area": "King's Cross",
      "district": "Westminster"
    },
    {
      "name": "Asia House",
      "lat": 51.519197,
      "lng": -0.144641,
      "area": "King's Cross",
      "district": "Westminster"
    },
    {
      "name": "Austin/Desmond Fine Art",
      "lat": 51.518283,
      "lng": -0.122767,
      "area": "King's Cross",
      "district": "Camden"
    },
    {
      "name": "Barbican Art Gallery",
      "lat": 51.519449,
      "lng": -0.092518,
      "area": "King's Cross",
      "district": "City of London"
    },
    {
      "name": "Beers London",
      "lat": 51.518353,
      "lng": -0.099875,
      "area": "King's Cross",
      "district": "City of London",
      "plz": "EC1A 7BH"
    },
    {
      "name": "British Library",
      "lat": 51.529477,
      "lng": -0.125407,
      "area": "King's Cross",
      "district": "Camden",
      "plz": "NW1 2DB"
    },
    {
      "name": "British Museum",
      "lat": 51.518461,
      "lng": -0.124893,
      "area": "King's Cross",
      "district": "Camden"
    },
    {
      "name": "Brunei Gallery",
      "lat": 51.52235,
      "lng": -0.129259,
      "area": "King's Cross",
      "district": "Camden"
    },
    {
      "name": "Candid Arts Centre",
      "lat": 51.532151,
      "lng": -0.105125,
      "area": "King's Cross",
      "district": "Islington",
      "plz": "EC1V 1NQ"
    },
    {
      "name": "Castor",
      "lat": 51.519403,
      "lng": -0.13392,
      "area": "King's Cross",
      "district": "Camden"
    },
    {
      "name": "Charles Dickens Museum",
      "lat": 51.523599,
      "lng": -0.116263,
      "area": "King's Cross",
      "district": "Camden"
    },
    {
      "name": "Charterhouse",
      "lat": 51.520805,
      "lng": -0.098458,
      "area": "King's Cross",
      "district": "Islington"
    },
    {
      "name": "Claas Reiss",
      "lat": 51.528678,
      "lng": -0.143244,
      "area": "King's Cross",
      "district": "Camden"
    },
    {
      "name": "Coningsby Gallery",
      "lat": 51.519856,
      "lng": -0.134538,
      "area": "King's Cross",
      "district": "Camden"
    },
    {
      "name": "Crafts Council Gallery",
      "lat": 51.532143,
      "lng": -0.108543,
      "area": "King's Cross",
      "district": "Islington",
      "plz": "N1 9BY"
    },
    {
      "name": "Cubitt Artists",
      "lat": 51.532348,
      "lng": -0.107871,
      "area": "King's Cross",
      "district": "Islington",
      "plz": "N1 9HH"
    },
    {
      "name": "Cubitt Gallery",
      "lat": 51.531841,
      "lng": -0.106261,
      "area": "King's Cross",
      "district": "Islington"
    },
    {
      "name": "Darren Flook/Freehouse",
      "lat": 51.519292,
      "lng": -0.142213,
      "area": "King's Cross",
      "district": "Westminster"
    },
    {
      "name": "Domobaal",
      "lat": 51.521096,
      "lng": -0.113122,
      "area": "King's Cross",
      "district": "Camden"
    },
    {
      "name": "Eagle Gallery",
      "lat": 51.523651,
      "lng": -0.108172,
      "area": "King's Cross",
      "district": "Islington"
    },
    {
      "name": "Edel Assanti",
      "lat": 51.51803,
      "lng": -0.140924,
      "area": "King's Cross",
      "district": "Westminster",
      "plz": "W1W 7BU"
    },
    {
      "name": "Fitztrovia Chapel",
      "lat": 51.518969,
      "lng": -0.138334,
      "area": "King's Cross",
      "district": "Westminster"
    },
    {
      "name": "Fold",
      "lat": 51.520025,
      "lng": -0.137861,
      "area": "King's Cross",
      "district": "Camden"
    },
    {
      "name": "Furtherfield Gallery",
      "lat": 51.569744,
      "lng": -0.101464,
      "area": "King's Cross",
      "district": "Haringey"
    },
    {
      "name": "Gagosian Gallery 1",
      "lat": 51.529594,
      "lng": -0.116419,
      "area": "King's Cross",
      "district": "Camden"
    },
    {
      "name": "Gallery Different",
      "lat": 51.518344,
      "lng": -0.13294,
      "area": "King's Cross",
      "district": "Camden",
      "plz": "W1T 1DR"
    },
    {
      "name": "Geology (and Teaching & Research) Collections, UCL",
      "lat": 51.523591,
      "lng": -0.131877,
      "area": "King's Cross",
      "district": "Camden"
    },
    {
      "name": "Government Art Collection",
      "lat": 51.521779,
      "lng": -0.13332,
      "area": "King's Cross",
      "district": "Camden"
    },
    {
      "name": "Grant Museum of Zoology and Comparative Anatomy, UCL",
      "lat": 51.523115,
      "lng": -0.133078,
      "area": "King's Cross",
      "district": "Camden"
    },
    {
      "name": "Hanmi Gallery",
      "lat": 51.52169,
      "lng": -0.137361,
      "area": "King's Cross",
      "district": "Camden"
    },
    {
      "name": "Hollybush Gardens",
      "lat": 51.523176,
      "lng": -0.111221,
      "area": "King's Cross",
      "district": "Camden"
    },
    {
      "name": "Indigo + Madder",
      "lat": 51.519403,
      "lng": -0.13392,
      "area": "King's Cross",
      "district": "Camden"
    },
    {
      "name": "Islington Museum",
      "lat": 51.526486,
      "lng": -0.104553,
      "area": "King's Cross",
      "district": "Islington",
      "plz": "EC1V 4NB"
    },
    {
      "name": "James Freeman Gallery",
      "lat": 51.534098,
      "lng": -0.102923,
      "area": "King's Cross",
      "district": "Islington"
    },
    {
      "name": "Jewish Museum, London",
      "lat": 51.536773,
      "lng": -0.143061,
      "area": "King's Cross",
      "district": "Camden"
    },
    {
      "name": "Josh Lilley",
      "lat": 51.519056,
      "lng": -0.139282,
      "area": "King's Cross",
      "district": "Westminster"
    },
    {
      "name": "L Ron Hubbard's Fitzroy House",
      "lat": 51.522499,
      "lng": -0.139214,
      "area": "King's Cross",
      "district": "Camden"
    },
    {
      "name": "London Canal Museum",
      "lat": 51.533714,
      "lng": -0.118715,
      "area": "King's Cross",
      "district": "Islington"
    },
    {
      "name": "MAMOTH",
      "lat": 51.526241,
      "lng": -0.130801,
      "area": "King's Cross",
      "district": "Camden"
    },
    {
      "name": "Mimosa House",
      "lat": 51.520009,
      "lng": -0.1184,
      "area": "King's Cross",
      "district": "Camden"
    },
    {
      "name": "Modern Art 1",
      "lat": 51.524529,
      "lng": -0.09294,
      "area": "King's Cross",
      "district": "Islington"
    },
    {
      "name": "Museum of Funeral History",
      "lat": 51.524095,
      "lng": -0.111327,
      "area": "King's Cross",
      "district": "Islington",
      "plz": "EC1R 4SL"
    },
    {
      "name": "Museum of Writing",
      "lat": 51.520133,
      "lng": -0.127117,
      "area": "King's Cross",
      "district": "Camden"
    },
    {
      "name": "Museum of the Order of St John",
      "lat": 51.521412,
      "lng": -0.100927,
      "area": "King's Cross",
      "district": "Islington"
    },
    {
      "name": "Novelty Automation",
      "lat": 51.519153,
      "lng": -0.115322,
      "area": "King's Cross",
      "district": "Camden"
    },
    {
      "name": "Pangolin London",
      "lat": 51.534489,
      "lng": -0.119966,
      "area": "King's Cross",
      "district": "Islington"
    },
    {
      "name": "Parasol unit",
      "lat": 51.522404,
      "lng": -0.140573,
      "area": "King's Cross",
      "district": "Camden",
      "plz": "W1T 6EX"
    },
    {
      "name": "Petrie Museum of Egyptian Archaeology",
      "lat": 51.523539,
      "lng": -0.130913,
      "area": "King's Cross",
      "district": "Camden"
    },
    {
      "name": "Pollock's Toy Museum",
      "lat": 51.520333,
      "lng": -0.135309,
      "area": "King's Cross",
      "district": "Camden"
    },
    {
      "name": "QUEER BRITAIN",
      "lat": 51.535701,
      "lng": -0.123982,
      "area": "King's Cross",
      "district": "Camden"
    },
    {
      "name": "Quentin Blake Centre for Illustration",
      "lat": 51.52836,
      "lng": -0.10994,
      "area": "King's Cross",
      "district": "Islington"
    },
    {
      "name": "Rebecca Hossack Gallery 1",
      "lat": 51.521538,
      "lng": -0.137943,
      "area": "King's Cross",
      "district": "Camden"
    },
    {
      "name": "Rosenfeld Porcini",
      "lat": 51.51801,
      "lng": -0.134411,
      "area": "King's Cross",
      "district": "Westminster"
    },
    {
      "name": "Royal College of Physicians of London Museum",
      "lat": 51.525239,
      "lng": -0.143401,
      "area": "King's Cross",
      "district": "Camden"
    },
    {
      "name": "Sway Gallery",
      "lat": 51.52373,
      "lng": -0.093593,
      "area": "King's Cross",
      "district": "Islington"
    },
    {
      "name": "Swendeborg Society Museum",
      "lat": 51.518012,
      "lng": -0.122864,
      "area": "King's Cross",
      "district": "Camden",
      "plz": "WC1A 2TH"
    },
    {
      "name": "TJ Boulting",
      "lat": 51.519301,
      "lng": -0.139402,
      "area": "King's Cross",
      "district": "Westminster"
    },
    {
      "name": "The Crypt Gallery",
      "lat": 51.526569,
      "lng": -0.128583,
      "area": "King's Cross",
      "district": "Camden"
    },
    {
      "name": "The Estorick Collection of Modern Italian Art",
      "lat": 51.54337,
      "lng": -0.098989,
      "area": "King's Cross",
      "district": "Islington"
    },
    {
      "name": "The Foundling Museum",
      "lat": 51.52476,
      "lng": -0.120064,
      "area": "King's Cross",
      "district": "Camden"
    },
    {
      "name": "The October Gallery",
      "lat": 51.520183,
      "lng": -0.120123,
      "area": "King's Cross",
      "district": "Camden"
    },
    {
      "name": "The Perimeter",
      "lat": 51.524061,
      "lng": -0.115941,
      "area": "King's Cross",
      "district": "Camden"
    },
    {
      "name": "The Postal Museum",
      "lat": 51.52476,
      "lng": -0.114081,
      "area": "King's Cross",
      "district": "Camden",
      "plz": "WC1X 0DA"
    },
    {
      "name": "Tristan Hoare",
      "lat": 51.522947,
      "lng": -0.137814,
      "area": "King's Cross",
      "district": "Camden"
    },
    {
      "name": "UCL Art Museum",
      "lat": 51.523992,
      "lng": -0.131687,
      "area": "King's Cross",
      "district": "Camden"
    },
    {
      "name": "University of the Arts London Gallery",
      "lat": 51.517765,
      "lng": -0.116388,
      "area": "King's Cross",
      "district": "Camden"
    },
    {
      "name": "Victoria Miro Gallery I",
      "lat": 51.529819,
      "lng": -0.09341,
      "area": "King's Cross",
      "district": "Hackney"
    },
    {
      "name": "Wellcome Collection",
      "lat": 51.525388,
      "lng": -0.132337,
      "area": "King's Cross",
      "district": "Camden"
    },
    {
      "name": "Woolff Gallery",
      "lat": 51.519961,
      "lng": -0.135485,
      "area": "King's Cross",
      "district": "Camden"
    },
    {
      "name": "A.P.T Gallery",
      "lat": 51.476401,
      "lng": -0.021523,
      "area": "Peckham",
      "district": "Lewisham"
    },
    {
      "name": "Arch Collective",
      "lat": 51.491609,
      "lng": -0.057706,
      "area": "Peckham",
      "district": "Southwark"
    },
    {
      "name": "Bethlem Gallery",
      "lat": 51.38084,
      "lng": -0.02937,
      "area": "Peckham",
      "district": "Bromley"
    },
    {
      "name": "Bethlem Museum of the Mind",
      "lat": 51.380394,
      "lng": -0.028155,
      "area": "Peckham",
      "district": "Bromley"
    },
    {
      "name": "Biggin Hill Memorial Museum",
      "lat": 51.327177,
      "lng": 0.023578,
      "area": "Peckham",
      "district": "Bromley",
      "plz": "TN16 3EJ"
    },
    {
      "name": "Blue Shop Cottage",
      "lat": 51.468397,
      "lng": -0.086473,
      "area": "Peckham",
      "district": "Southwark"
    },
    {
      "name": "Bosse & Baum",
      "lat": 51.469999,
      "lng": -0.065773,
      "area": "Peckham",
      "district": "Southwark"
    },
    {
      "name": "CGP London",
      "lat": 51.493633,
      "lng": -0.052318,
      "area": "Peckham",
      "district": "Southwark"
    },
    {
      "name": "Crystal Palace Museum",
      "lat": 51.419254,
      "lng": -0.075116,
      "area": "Peckham",
      "district": "Bromley"
    },
    {
      "name": "Cutty Sark",
      "lat": 51.482297,
      "lng": -0.0079,
      "area": "Peckham",
      "district": "Greenwich"
    },
    {
      "name": "Dilston Gallery (Southwark Park Gallery)",
      "lat": 51.491814,
      "lng": -0.054291,
      "area": "Peckham",
      "district": "Southwark",
      "plz": "SE16 2DD"
    },
    {
      "name": "Down House",
      "lat": 51.330899,
      "lng": 0.055058,
      "area": "Peckham",
      "district": "Bromley"
    },
    {
      "name": "Dulwich Picture Gallery",
      "lat": 51.445459,
      "lng": -0.084838,
      "area": "Peckham",
      "district": "Southwark"
    },
    {
      "name": "Fan Museum",
      "lat": 51.478464,
      "lng": -0.006613,
      "area": "Peckham",
      "district": "Greenwich"
    },
    {
      "name": "Flat Time House",
      "lat": 51.465584,
      "lng": -0.072577,
      "area": "Peckham",
      "district": "Southwark"
    },
    {
      "name": "Goldsmiths Centre for Contemporary Art",
      "lat": 51.474144,
      "lng": -0.035401,
      "area": "Peckham",
      "district": "Lewisham",
      "plz": "SE14 6AD"
    },
    {
      "name": "Gossamer Fog",
      "lat": 51.480444,
      "lng": -0.026115,
      "area": "Peckham",
      "district": "Lewisham"
    },
    {
      "name": "Greenwich Printmakers Gallery",
      "lat": 51.480857,
      "lng": -0.007576,
      "area": "Peckham",
      "district": "Greenwich"
    },
    {
      "name": "Hannah Barry Gallery",
      "lat": 51.470288,
      "lng": -0.069648,
      "area": "Peckham",
      "district": "Southwark",
      "plz": "SE15 5DF"
    },
    {
      "name": "Horniman Museum and Gardens",
      "lat": 51.440612,
      "lng": -0.059151,
      "area": "Peckham",
      "district": "Lewisham"
    },
    {
      "name": "Lake Gallery (Southwark Park Galleries",
      "lat": 51.494147,
      "lng": -0.053932,
      "area": "Peckham",
      "district": "Southwark",
      "plz": "SE16 2UA"
    },
    {
      "name": "Lewisham Arthouse",
      "lat": 51.471483,
      "lng": -0.030634,
      "area": "Peckham",
      "district": "Lewisham",
      "plz": "SE14 6PD"
    },
    {
      "name": "MMX Gallery",
      "lat": 51.475247,
      "lng": -0.029349,
      "area": "Peckham",
      "district": "Lewisham"
    },
    {
      "name": "Matt's Gallery",
      "lat": 51.495482,
      "lng": -0.062865,
      "area": "Peckham",
      "district": "Southwark",
      "plz": "SE16 4DF"
    },
    {
      "name": "Migration Museum",
      "lat": 51.46145,
      "lng": -0.01178,
      "area": "Peckham",
      "district": "Lewisham",
      "plz": "SE13 7HB"
    },
    {
      "name": "National Maritime Museum",
      "lat": 51.480425,
      "lng": -0.003622,
      "area": "Peckham",
      "district": "Greenwich"
    },
    {
      "name": "Queen's House",
      "lat": 51.481337,
      "lng": -0.004487,
      "area": "Peckham",
      "district": "Greenwich",
      "plz": "SE10 9NF"
    },
    {
      "name": "Ranger's House",
      "lat": 51.472895,
      "lng": -1.7e-05,
      "area": "Peckham",
      "district": "Greenwich"
    },
    {
      "name": "Royal Museums Greenwich",
      "lat": 51.480637,
      "lng": -0.002132,
      "area": "Peckham",
      "district": "Greenwich"
    },
    {
      "name": "Royal Observatory Greenwich",
      "lat": 51.477346,
      "lng": -0.000888,
      "area": "Peckham",
      "district": "Greenwich",
      "plz": "SE10 8XJ"
    },
    {
      "name": "SEAGER",
      "lat": 51.473662,
      "lng": -0.023355,
      "area": "Peckham",
      "district": "Lewisham"
    },
    {
      "name": "Seen Fifteen",
      "lat": 51.469999,
      "lng": -0.065773,
      "area": "Peckham",
      "district": "Southwark"
    },
    {
      "name": "Sid Motion Gallery",
      "lat": 51.48388,
      "lng": -0.05488,
      "area": "Peckham",
      "district": "Southwark"
    },
    {
      "name": "South London Gallery",
      "lat": 51.474285,
      "lng": -0.079776,
      "area": "Peckham",
      "district": "Southwark",
      "plz": "SE5 8UH"
    },
    {
      "name": "South Parade",
      "lat": 51.478455,
      "lng": -0.024386,
      "area": "Peckham",
      "district": "Lewisham"
    },
    {
      "name": "The Old Royal Naval College",
      "lat": 51.482452,
      "lng": -0.004804,
      "area": "Peckham",
      "district": "Greenwich"
    },
    {
      "name": "Trafalgar Avenue",
      "lat": 51.485689,
      "lng": -0.073809,
      "area": "Peckham",
      "district": "Southwark"
    },
    {
      "name": "Xxijra Hii",
      "lat": 51.478455,
      "lng": -0.024386,
      "area": "Peckham",
      "district": "Lewisham"
    },
    {
      "name": "hARTslane",
      "lat": 51.475565,
      "lng": -0.042943,
      "area": "Peckham",
      "district": "Lewisham",
      "plz": "SE14 5UP"
    },
    {
      "name": "romley Historic Collections (at Bromley Central Libra",
      "lat": 51.403241,
      "lng": 0.016067,
      "area": "Peckham",
      "district": "Bromley"
    },
    {
      "name": "Andor Gallery",
      "lat": 51.54844,
      "lng": -0.073828,
      "area": "Shoreditch",
      "district": "Hackney",
      "plz": "E8 2NP"
    },
    {
      "name": "Annka Kultys Gallery",
      "lat": 51.53214,
      "lng": -0.05829,
      "area": "Shoreditch",
      "district": "Tower Hamlets",
      "plz": "E2 9EQ"
    },
    {
      "name": "Auto Italia",
      "lat": 51.532367,
      "lng": -0.052446,
      "area": "Shoreditch",
      "district": "Tower Hamlets",
      "plz": "E2 9JS"
    },
    {
      "name": "Autograph",
      "lat": 51.526446,
      "lng": -0.079456,
      "area": "Shoreditch",
      "district": "Hackney",
      "plz": "EC2A 3BA"
    },
    {
      "name": "BSMT Space",
      "lat": 51.54575,
      "lng": -0.075975,
      "area": "Shoreditch",
      "district": "Hackney",
      "plz": "E8 4AR"
    },
    {
      "name": "Bank of England Museum",
      "lat": 51.513724,
      "lng": -0.086112,
      "area": "Shoreditch",
      "district": "City of London"
    },
    {
      "name": "Barts Pathology Museum",
      "lat": 51.517136,
      "lng": -0.099434,
      "area": "Shoreditch",
      "district": "City of London"
    },
    {
      "name": "Brick Lane Gallery",
      "lat": 51.52397,
      "lng": -0.069809,
      "area": "Shoreditch",
      "district": "Tower Hamlets"
    },
    {
      "name": "British Red Cross Museum and Archives",
      "lat": 51.518581,
      "lng": -0.087065,
      "area": "Shoreditch",
      "district": "City of London"
    },
    {
      "name": "Bruce Castle Museum & Archives",
      "lat": 51.598647,
      "lng": -0.07385,
      "area": "Shoreditch",
      "district": "Haringey"
    },
    {
      "name": "Brunel Museum",
      "lat": 51.501082,
      "lng": -0.051352,
      "area": "Shoreditch",
      "district": "Southwark"
    },
    {
      "name": "Carlos Ishikawa",
      "lat": 51.520049,
      "lng": -0.052006,
      "area": "Shoreditch",
      "district": "Tower Hamlets"
    },
    {
      "name": "Cell Project Space",
      "lat": 51.53277,
      "lng": -0.055016,
      "area": "Shoreditch",
      "district": "Tower Hamlets"
    },
    {
      "name": "Chisenhale Gallery",
      "lat": 51.533143,
      "lng": -0.039595,
      "area": "Shoreditch",
      "district": "Tower Hamlets"
    },
    {
      "name": "Doyle Wham",
      "lat": 51.526368,
      "lng": -0.078537,
      "area": "Shoreditch",
      "district": "Hackney"
    },
    {
      "name": "EMALIN",
      "lat": 51.523871,
      "lng": -0.077589,
      "area": "Shoreditch",
      "district": "Hackney"
    },
    {
      "name": "Espacio Gallery",
      "lat": 51.525098,
      "lng": -0.068939,
      "area": "Shoreditch",
      "district": "Tower Hamlets"
    },
    {
      "name": "Flowers Gallery East",
      "lat": 51.529137,
      "lng": -0.07556,
      "area": "Shoreditch",
      "district": "Hackney"
    },
    {
      "name": "Four Corners Gallery",
      "lat": 51.52881,
      "lng": -0.04888,
      "area": "Shoreditch",
      "district": "Tower Hamlets"
    },
    {
      "name": "Guildhall Art Gallery",
      "lat": 51.515566,
      "lng": -0.09166,
      "area": "Shoreditch",
      "district": "City of London"
    },
    {
      "name": "Guildhall Art Gallery and London's Roman Amphitheatre",
      "lat": 51.515056,
      "lng": -0.090049,
      "area": "Shoreditch",
      "district": "City of London"
    },
    {
      "name": "Guts Gallery",
      "lat": 51.550799,
      "lng": -0.062564,
      "area": "Shoreditch",
      "district": "Hackney"
    },
    {
      "name": "Hackney Museum",
      "lat": 51.543971,
      "lng": -0.054481,
      "area": "Shoreditch",
      "district": "Hackney"
    },
    {
      "name": "Hales London",
      "lat": 51.52373,
      "lng": -0.07622,
      "area": "Shoreditch",
      "district": "Hackney",
      "plz": "E1 6LA"
    },
    {
      "name": "Herald St (Shoreditch)",
      "lat": 51.524865,
      "lng": -0.055563,
      "area": "Shoreditch",
      "district": "Tower Hamlets",
      "plz": "E2 6JT"
    },
    {
      "name": "John Wesley\u00ca\u00bcs House and The Museum of Methodism",
      "lat": 51.523076,
      "lng": -0.085461,
      "area": "Shoreditch",
      "district": "Islington"
    },
    {
      "name": "Kate MacGarry",
      "lat": 51.524699,
      "lng": -0.075435,
      "area": "Shoreditch",
      "district": "Tower Hamlets",
      "plz": "E2 7HR"
    },
    {
      "name": "Leyden Gallery",
      "lat": 51.516387,
      "lng": -0.074642,
      "area": "Shoreditch",
      "district": "Tower Hamlets"
    },
    {
      "name": "Maureen Paley",
      "lat": 51.52459,
      "lng": -0.05566,
      "area": "Shoreditch",
      "district": "Tower Hamlets",
      "plz": "E2 6GQ"
    },
    {
      "name": "Moarain House",
      "lat": 51.524971,
      "lng": -0.055429,
      "area": "Shoreditch",
      "district": "Tower Hamlets",
      "plz": "E2 0EL"
    },
    {
      "name": "Museum of London",
      "lat": 51.517287,
      "lng": -0.094482,
      "area": "Shoreditch",
      "district": "City of London"
    },
    {
      "name": "Museum of the Home",
      "lat": 51.531047,
      "lng": -0.074657,
      "area": "Shoreditch",
      "district": "Hackney"
    },
    {
      "name": "New Art Projects",
      "lat": 51.535021,
      "lng": -0.060076,
      "area": "Shoreditch",
      "district": "Hackney"
    },
    {
      "name": "New Contemporaries",
      "lat": 51.524358,
      "lng": -0.073302,
      "area": "Shoreditch",
      "district": "Tower Hamlets",
      "plz": "E1 6LA"
    },
    {
      "name": "NiCOLETTi",
      "lat": 51.534309,
      "lng": -0.056185,
      "area": "Shoreditch",
      "district": "Tower Hamlets"
    },
    {
      "name": "ONEROOM Gallery",
      "lat": 51.525593,
      "lng": -0.078425,
      "area": "Shoreditch",
      "district": "Hackney",
      "plz": "E1 6JB"
    },
    {
      "name": "Ojiri Gallery",
      "lat": 51.525371,
      "lng": -0.081375,
      "area": "Shoreditch",
      "district": "Hackney",
      "plz": "EC2A 3PB"
    },
    {
      "name": "Oxford House in Bethnal Green",
      "lat": 51.526367,
      "lng": -0.061511,
      "area": "Shoreditch",
      "district": "Tower Hamlets",
      "plz": "E2 6HG"
    },
    {
      "name": "PUBLIC Gallery",
      "lat": 51.516258,
      "lng": -0.076714,
      "area": "Shoreditch",
      "district": "City of London"
    },
    {
      "name": "Peer UK",
      "lat": 51.529808,
      "lng": -0.080497,
      "area": "Shoreditch",
      "district": "Hackney",
      "plz": "N1 6QL"
    },
    {
      "name": "Project tive Informant",
      "lat": 51.524428,
      "lng": -0.056303,
      "area": "Shoreditch",
      "district": "Tower Hamlets"
    },
    {
      "name": "Raven Row",
      "lat": 51.517648,
      "lng": -0.075266,
      "area": "Shoreditch",
      "district": "Tower Hamlets"
    },
    {
      "name": "Rocket Gallery",
      "lat": 51.535021,
      "lng": -0.060076,
      "area": "Shoreditch",
      "district": "Hackney",
      "plz": "E8 4QS"
    },
    {
      "name": "Seventeen",
      "lat": 51.53785,
      "lng": -0.076251,
      "area": "Shoreditch",
      "district": "Hackney"
    },
    {
      "name": "Soft Opening",
      "lat": 51.531598,
      "lng": -0.059732,
      "area": "Shoreditch",
      "district": "Tower Hamlets"
    },
    {
      "name": "St. Bartholomew's Hospital Museum",
      "lat": 51.517136,
      "lng": -0.099434,
      "area": "Shoreditch",
      "district": "City of London"
    },
    {
      "name": "Standpoint",
      "lat": 51.52707,
      "lng": -0.081852,
      "area": "Shoreditch",
      "district": "Hackney"
    },
    {
      "name": "Stolenspace Gallery",
      "lat": 51.515963,
      "lng": -0.068548,
      "area": "Shoreditch",
      "district": "Tower Hamlets"
    },
    {
      "name": "Stour Gallery",
      "lat": 51.537312,
      "lng": -0.076316,
      "area": "Shoreditch",
      "district": "Hackney"
    },
    {
      "name": "Studio M",
      "lat": 51.525775,
      "lng": -0.07415,
      "area": "Shoreditch",
      "district": "Tower Hamlets"
    },
    {
      "name": "Sutton House and Breaker's Yard",
      "lat": 51.547978,
      "lng": -0.048814,
      "area": "Shoreditch",
      "district": "Hackney"
    },
    {
      "name": "Tabula Rasa Gallery",
      "lat": 51.529782,
      "lng": -0.087159,
      "area": "Shoreditch",
      "district": "Hackney"
    },
    {
      "name": "The Approach",
      "lat": 51.531359,
      "lng": -0.051826,
      "area": "Shoreditch",
      "district": "Tower Hamlets"
    },
    {
      "name": "The Markfield Beam Engine and Museum",
      "lat": 51.581918,
      "lng": -0.061633,
      "area": "Shoreditch",
      "district": "Haringey"
    },
    {
      "name": "The Residence",
      "lat": 51.537819,
      "lng": -0.042557,
      "area": "Shoreditch",
      "district": "Hackney"
    },
    {
      "name": "Trades Union Congress (TUC) Library Collections",
      "lat": 51.515262,
      "lng": -0.072411,
      "area": "Shoreditch",
      "district": "Tower Hamlets"
    },
    {
      "name": "Union Gallery",
      "lat": 51.529304,
      "lng": -0.059733,
      "area": "Shoreditch",
      "district": "Tower Hamlets"
    },
    {
      "name": "Union Pacific",
      "lat": 51.51604,
      "lng": -0.074993,
      "area": "Shoreditch",
      "district": "Tower Hamlets"
    },
    {
      "name": "Vagina Museum",
      "lat": 51.52876,
      "lng": -0.05318,
      "area": "Shoreditch",
      "district": "Tower Hamlets",
      "plz": "E2 9PF"
    },
    {
      "name": "Wesley\u00e2\u20ac\u2122s Chapel, Museum of Methodism and John Wesle",
      "lat": 51.523256,
      "lng": -0.084934,
      "area": "Shoreditch",
      "district": "Islington"
    },
    {
      "name": "Whitechapel Gallery",
      "lat": 51.515661,
      "lng": -0.068777,
      "area": "Shoreditch",
      "district": "Tower Hamlets"
    },
    {
      "name": "Whitechapel Gallery",
      "lat": 51.516172,
      "lng": -0.07039,
      "area": "Shoreditch",
      "district": "Tower Hamlets",
      "plz": "E17QX"
    },
    {
      "name": "Yamamoto Keiko Rochaix",
      "lat": 51.51604,
      "lng": -0.074993,
      "area": "Shoreditch",
      "district": "Tower Hamlets"
    },
    {
      "name": "mother's tankstation",
      "lat": 51.52449,
      "lng": -0.05565,
      "area": "Shoreditch",
      "district": "Tower Hamlets"
    },
    {
      "name": "ASC Gallery",
      "lat": 51.48902,
      "lng": -0.08722,
      "area": "South Bank",
      "district": "Southwark"
    },
    {
      "name": "Art First",
      "lat": 51.493655,
      "lng": -0.108494,
      "area": "South Bank",
      "district": "Lambeth"
    },
    {
      "name": "Bankside Gallery",
      "lat": 51.508191,
      "lng": -0.10096,
      "area": "South Bank",
      "district": "Southwark",
      "plz": "SE1 9JH"
    },
    {
      "name": "Banqueting House Whitehall",
      "lat": 51.504026,
      "lng": -0.124347,
      "area": "South Bank",
      "district": "Westminster"
    },
    {
      "name": "Brocket Gallery",
      "lat": 51.486505,
      "lng": -0.110229,
      "area": "South Bank",
      "district": "Lambeth"
    },
    {
      "name": "Cabinet Gallery",
      "lat": 51.487618,
      "lng": -0.119504,
      "area": "South Bank",
      "district": "Lambeth",
      "plz": "SE11 5HS"
    },
    {
      "name": "Cecilia Brunson Projects",
      "lat": 51.498986,
      "lng": -0.082383,
      "area": "South Bank",
      "district": "Southwark"
    },
    {
      "name": "Churchill War Rooms",
      "lat": 51.501667,
      "lng": -0.127796,
      "area": "South Bank",
      "district": "Westminster"
    },
    {
      "name": "Cinema Museum",
      "lat": 51.491767,
      "lng": -0.103586,
      "area": "South Bank",
      "district": "Lambeth"
    },
    {
      "name": "Corvi-Mora",
      "lat": 51.491182,
      "lng": -0.108524,
      "area": "South Bank",
      "district": "Lambeth"
    },
    {
      "name": "Crypt Museum",
      "lat": 51.508818,
      "lng": -0.077598,
      "area": "South Bank",
      "district": "Tower Hamlets"
    },
    {
      "name": "C\u00d8PPERFIELD",
      "lat": 51.503167,
      "lng": -0.097293,
      "area": "South Bank",
      "district": "Southwark"
    },
    {
      "name": "Danielle Arnaud",
      "lat": 51.494289,
      "lng": -0.10887,
      "area": "South Bank",
      "district": "Lambeth"
    },
    {
      "name": "Dr. Johnson's House",
      "lat": 51.514524,
      "lng": -0.106576,
      "area": "South Bank",
      "district": "City of London"
    },
    {
      "name": "Fashion and Textile Museum",
      "lat": 51.500668,
      "lng": -0.080204,
      "area": "South Bank",
      "district": "Southwark"
    },
    {
      "name": "Florence Nightingale Museum",
      "lat": 51.499539,
      "lng": -0.115425,
      "area": "South Bank",
      "district": "Lambeth"
    },
    {
      "name": "Garden Museum",
      "lat": 51.495048,
      "lng": -0.120221,
      "area": "South Bank",
      "district": "Lambeth",
      "plz": "SE1 7LB"
    },
    {
      "name": "Gasworks",
      "lat": 51.485134,
      "lng": -0.115458,
      "area": "South Bank",
      "district": "Lambeth",
      "plz": "SE11 5RH"
    },
    {
      "name": "Gasworks Gallery",
      "lat": 51.484621,
      "lng": -0.113851,
      "area": "South Bank",
      "district": "Lambeth"
    },
    {
      "name": "HMS Belfast",
      "lat": 51.506079,
      "lng": -0.079877,
      "area": "South Bank",
      "district": "Southwark"
    },
    {
      "name": "Household Cavalry Museum",
      "lat": 51.50447,
      "lng": -0.125655,
      "area": "South Bank",
      "district": "Westminster"
    },
    {
      "name": "Imperial War Museum London",
      "lat": 51.495496,
      "lng": -0.106745,
      "area": "South Bank",
      "district": "Southwark"
    },
    {
      "name": "Jerwood Space",
      "lat": 51.50362,
      "lng": -0.099119,
      "area": "South Bank",
      "district": "Southwark",
      "plz": "SE1 0LN"
    },
    {
      "name": "Jerwood Space Gallery",
      "lat": 51.503099,
      "lng": -0.097495,
      "area": "South Bank",
      "district": "Southwark"
    },
    {
      "name": "Kristin Hjellegjerde Gallery (London Bridge)",
      "lat": 51.50237,
      "lng": -0.08427,
      "area": "South Bank",
      "district": "Southwark",
      "plz": "SE1 3SZ"
    },
    {
      "name": "Lambeth Palace Library",
      "lat": 51.497656,
      "lng": -0.118572,
      "area": "South Bank",
      "district": "Lambeth",
      "plz": "SE1 7JT"
    },
    {
      "name": "London Glassblowing",
      "lat": 51.501615,
      "lng": -0.082575,
      "area": "South Bank",
      "district": "Southwark"
    },
    {
      "name": "London Mithraeum",
      "lat": 51.512711,
      "lng": -0.090814,
      "area": "South Bank",
      "district": "City of London",
      "plz": "EC4N 8AA"
    },
    {
      "name": "London Mithraeum Bloomberg SPACE",
      "lat": 51.51242,
      "lng": -0.090595,
      "area": "South Bank",
      "district": "City of London",
      "plz": "EC4N 8AA"
    },
    {
      "name": "Morley College Gallery",
      "lat": 51.497366,
      "lng": -0.108368,
      "area": "South Bank",
      "district": "Southwark"
    },
    {
      "name": "Museum of the Royal Pharmaceutical Society",
      "lat": 51.508567,
      "lng": -0.066684,
      "area": "South Bank",
      "district": "Tower Hamlets"
    },
    {
      "name": "Newport Street",
      "lat": 51.492918,
      "lng": -0.115395,
      "area": "South Bank",
      "district": "Lambeth"
    },
    {
      "name": "Purdy Hicks",
      "lat": 51.50696,
      "lng": -0.100433,
      "area": "South Bank",
      "district": "Southwark"
    },
    {
      "name": "Royal Armouries, Tower of London",
      "lat": 51.507763,
      "lng": -0.074659,
      "area": "South Bank",
      "district": "Tower Hamlets"
    },
    {
      "name": "Sim Smith",
      "lat": 51.474801,
      "lng": -0.094327,
      "area": "South Bank",
      "district": "Southwark"
    },
    {
      "name": "Southwark Heritage Centre and Walworth Library",
      "lat": 51.491652,
      "lng": -0.097542,
      "area": "South Bank",
      "district": "Southwark",
      "plz": "SE17 1RW"
    },
    {
      "name": "Space Station 65",
      "lat": 51.486011,
      "lng": -0.109183,
      "area": "South Bank",
      "district": "Lambeth"
    },
    {
      "name": "Sundy",
      "lat": 51.491534,
      "lng": -0.118637,
      "area": "South Bank",
      "district": "Lambeth"
    },
    {
      "name": "Tate Modern",
      "lat": 51.507106,
      "lng": -0.097789,
      "area": "South Bank",
      "district": "Southwark"
    },
    {
      "name": "The Arab British Centre",
      "lat": 51.51514,
      "lng": -0.10808,
      "area": "South Bank",
      "district": "City of London",
      "plz": "EC4A 3DE"
    },
    {
      "name": "The Fusilier Museum London",
      "lat": 51.50788,
      "lng": -0.073602,
      "area": "South Bank",
      "district": "Tower Hamlets"
    },
    {
      "name": "The Garden Museum",
      "lat": 51.494536,
      "lng": -0.118614,
      "area": "South Bank",
      "district": "Lambeth"
    },
    {
      "name": "The Old Operating Theater Museum and Herb Garret",
      "lat": 51.5045,
      "lng": -0.086845,
      "area": "South Bank",
      "district": "Southwark"
    },
    {
      "name": "The Tower of London",
      "lat": 51.507763,
      "lng": -0.074659,
      "area": "South Bank",
      "district": "Tower Hamlets"
    },
    {
      "name": "Two Temple Place",
      "lat": 51.511091,
      "lng": -0.110639,
      "area": "South Bank",
      "district": "City of London"
    },
    {
      "name": "Vitrine",
      "lat": 51.496878,
      "lng": -0.079166,
      "area": "South Bank",
      "district": "Southwark"
    },
    {
      "name": "Westminster Abbey Library",
      "lat": 51.499003,
      "lng": -0.12742,
      "area": "South Bank",
      "district": "Westminster",
      "plz": "SW1P 3PA"
    },
    {
      "name": "White Cube",
      "lat": 51.498937,
      "lng": -0.081069,
      "area": "South Bank",
      "district": "Southwark"
    },
    {
      "name": "White Cube Bermondsey",
      "lat": 51.499449,
      "lng": -0.08268,
      "area": "South Bank",
      "district": "Southwark",
      "plz": "SE1 3TQ"
    },
    {
      "name": "greengrassi",
      "lat": 51.491182,
      "lng": -0.108524,
      "area": "South Bank",
      "district": "Lambeth"
    },
    {
      "name": "Arebyte",
      "lat": 51.511286,
      "lng": 0.005353,
      "area": "Stratford",
      "district": "Tower Hamlets"
    },
    {
      "name": "Crossness Engines",
      "lat": 51.505291,
      "lng": 0.135618,
      "area": "Stratford",
      "district": "Bexley"
    },
    {
      "name": "Cygnet Sq (TACO!)",
      "lat": 51.49767,
      "lng": 0.12294,
      "area": "Stratford",
      "district": "Bexley",
      "plz": "SE2 9FA"
    },
    {
      "name": "Eltham Palace",
      "lat": 51.446464,
      "lng": 0.049539,
      "area": "Stratford",
      "district": "Greenwich"
    },
    {
      "name": "Eve Leibe",
      "lat": 51.539715,
      "lng": -0.02345,
      "area": "Stratford",
      "district": "Tower Hamlets"
    },
    {
      "name": "Gallery No.32",
      "lat": 51.438385,
      "lng": 0.14436,
      "area": "Stratford",
      "district": "Bexley"
    },
    {
      "name": "Hall Place and Gardens",
      "lat": 51.447509,
      "lng": 0.161866,
      "area": "Stratford",
      "district": "Bexley"
    },
    {
      "name": "Havering Museum",
      "lat": 51.577414,
      "lng": 0.181204,
      "area": "Stratford",
      "district": "Havering"
    },
    {
      "name": "House Mill",
      "lat": 51.526896,
      "lng": -0.005985,
      "area": "Stratford",
      "district": "Newham"
    },
    {
      "name": "Museum of London Docklands",
      "lat": 51.507106,
      "lng": -0.022241,
      "area": "Stratford",
      "district": "Tower Hamlets"
    },
    {
      "name": "Nunnery Gallery",
      "lat": 51.52892,
      "lng": -0.017877,
      "area": "Stratford",
      "district": "Tower Hamlets",
      "plz": "E3 2SJ"
    },
    {
      "name": "Ragged School Museum",
      "lat": 51.518152,
      "lng": -0.034074,
      "area": "Stratford",
      "district": "Tower Hamlets"
    },
    {
      "name": "Redbridge Museum",
      "lat": 51.557555,
      "lng": 0.076933,
      "area": "Stratford",
      "district": "Redbridge"
    },
    {
      "name": "Rosetta Arts",
      "lat": 51.524916,
      "lng": 0.007076,
      "area": "Stratford",
      "district": "Newham",
      "plz": "E15 3AE"
    },
    {
      "name": "SPACE Ilford",
      "lat": 51.558472,
      "lng": 0.074541,
      "area": "Stratford",
      "district": "Redbridge",
      "plz": "IG1 1ZJ"
    },
    {
      "name": "The Mill @ Coppermill",
      "lat": 51.581733,
      "lng": -0.03443,
      "area": "Stratford",
      "district": "Waltham Forest"
    },
    {
      "name": "The Stone Space",
      "lat": 51.568201,
      "lng": 0.010584,
      "area": "Stratford",
      "district": "Waltham Forest"
    },
    {
      "name": "The View (Epping Forest Collection)",
      "lat": 51.633895,
      "lng": 0.019126,
      "area": "Stratford",
      "district": "Waltham Forest"
    },
    {
      "name": "Unit G Gallery",
      "lat": 51.53968,
      "lng": -0.02122,
      "area": "Stratford",
      "district": "Tower Hamlets"
    },
    {
      "name": "Valence House Museum",
      "lat": 51.557802,
      "lng": 0.135812,
      "area": "Stratford",
      "district": "Barking and Dagenham"
    },
    {
      "name": "Vestry House Museum",
      "lat": 51.583509,
      "lng": -0.011144,
      "area": "Stratford",
      "district": "Waltham Forest"
    },
    {
      "name": "Walthamstow Pumphouse Museum",
      "lat": 51.576208,
      "lng": -0.033171,
      "area": "Stratford",
      "district": "Waltham Forest"
    },
    {
      "name": "William Morris Gallery",
      "lat": 51.590797,
      "lng": -0.018781,
      "area": "Stratford",
      "district": "Waltham Forest"
    },
    {
      "name": "180 The Strand",
      "lat": 51.512421,
      "lng": -0.11511,
      "area": "West End",
      "district": "Westminster",
      "plz": "WC2R 1EA"
    },
    {
      "name": "3812 Gallery",
      "lat": 51.5066,
      "lng": -0.138579,
      "area": "West End",
      "district": "Westminster"
    },
    {
      "name": "Addis Fine Art",
      "lat": 51.516815,
      "lng": -0.13799,
      "area": "West End",
      "district": "Westminster"
    },
    {
      "name": "Adrian Sassoon Gallery",
      "lat": 51.501174,
      "lng": -0.168683,
      "area": "West End",
      "district": "Westminster",
      "plz": "SW7 1BB"
    },
    {
      "name": "Aktis Gallery",
      "lat": 51.507933,
      "lng": -0.138755,
      "area": "West End",
      "district": "Westminster",
      "plz": "SW1Y 6LX"
    },
    {
      "name": "Alan Cristea Gallery",
      "lat": 51.505575,
      "lng": -0.134602,
      "area": "West End",
      "district": "Westminster"
    },
    {
      "name": "Albemarle Gallery",
      "lat": 51.507516,
      "lng": -0.139625,
      "area": "West End",
      "district": "Westminster"
    },
    {
      "name": "Albermarle Gallery",
      "lat": 51.517627,
      "lng": -0.135939,
      "area": "West End",
      "district": "Westminster",
      "plz": "W1T 3DB"
    },
    {
      "name": "Alice Black",
      "lat": 51.517909,
      "lng": -0.140655,
      "area": "West End",
      "district": "Westminster"
    },
    {
      "name": "Alison Jacques Gallery",
      "lat": 51.516967,
      "lng": -0.134973,
      "area": "West End",
      "district": "Westminster"
    },
    {
      "name": "Almine Rech",
      "lat": 51.511655,
      "lng": -0.146645,
      "area": "West End",
      "district": "Westminster"
    },
    {
      "name": "Amanda Wilkinson Gallery",
      "lat": 51.51235,
      "lng": -0.134309,
      "area": "West End",
      "district": "Westminster"
    },
    {
      "name": "Anatomy and Pathology Museum",
      "lat": 51.514774,
      "lng": -0.114292,
      "area": "West End",
      "district": "Westminster"
    },
    {
      "name": "Annely Juda Fine Art",
      "lat": 51.513745,
      "lng": -0.14394,
      "area": "West End",
      "district": "Westminster"
    },
    {
      "name": "Apsley House (The Wellington Collection)",
      "lat": 51.50341,
      "lng": -0.151864,
      "area": "West End",
      "district": "Westminster",
      "plz": "W1J 7NT"
    },
    {
      "name": "Arcadia Missa",
      "lat": 51.515025,
      "lng": -0.151596,
      "area": "West End",
      "district": "Westminster"
    },
    {
      "name": "Arts Council Collection",
      "lat": 51.50608,
      "lng": -0.1163,
      "area": "West End",
      "district": "Lambeth",
      "plz": "SE1 8XX"
    },
    {
      "name": "Atlas Gallery",
      "lat": 51.518991,
      "lng": -0.153775,
      "area": "West End",
      "district": "Westminster"
    },
    {
      "name": "Belmacz",
      "lat": 51.512411,
      "lng": -0.148402,
      "area": "West End",
      "district": "Westminster"
    },
    {
      "name": "Ben Brown Fine Arts",
      "lat": 51.511891,
      "lng": -0.144434,
      "area": "West End",
      "district": "Westminster"
    },
    {
      "name": "Ben Hunter",
      "lat": 51.506981,
      "lng": -0.137684,
      "area": "West End",
      "district": "Westminster"
    },
    {
      "name": "Benjamin Franklin House",
      "lat": 51.50713,
      "lng": -0.123312,
      "area": "West End",
      "district": "Westminster"
    },
    {
      "name": "Berntson Bhattacharjee Gallery",
      "lat": 51.495116,
      "lng": -0.174602,
      "area": "West End",
      "district": "Kensington and Chelsea"
    },
    {
      "name": "Berrd Jacobson Gallery",
      "lat": 51.510037,
      "lng": -0.140344,
      "area": "West End",
      "district": "Westminster"
    },
    {
      "name": "Bhavan Art Gallery",
      "lat": 51.489763,
      "lng": -0.207067,
      "area": "West End",
      "district": "Hammersmith and Fulham"
    },
    {
      "name": "Black Box Projects",
      "lat": 51.495116,
      "lng": -0.174602,
      "area": "West End",
      "district": "Kensington and Chelsea"
    },
    {
      "name": "Bow Street Police Museum",
      "lat": 51.51338,
      "lng": -0.12178,
      "area": "West End",
      "district": "Westminster",
      "plz": "WC2E 7AW"
    },
    {
      "name": "British Dental Association Museum",
      "lat": 51.518066,
      "lng": -0.147037,
      "area": "West End",
      "district": "Westminster"
    },
    {
      "name": "British Optical Association Museum",
      "lat": 51.507333,
      "lng": -0.123774,
      "area": "West End",
      "district": "Westminster"
    },
    {
      "name": "Cadogan Contemporary",
      "lat": 51.492006,
      "lng": -0.175324,
      "area": "West End",
      "district": "Kensington and Chelsea"
    },
    {
      "name": "Camera Museum",
      "lat": 51.517682,
      "lng": -0.125256,
      "area": "West End",
      "district": "Camden",
      "plz": "WC1A 1LY"
    },
    {
      "name": "Cardi Gallery London",
      "lat": 51.509603,
      "lng": -0.14314,
      "area": "West End",
      "district": "Westminster"
    },
    {
      "name": "Carlyle's House",
      "lat": 51.483619,
      "lng": -0.168125,
      "area": "West End",
      "district": "Kensington and Chelsea"
    },
    {
      "name": "Catharine Miller Gallery",
      "lat": 51.486038,
      "lng": -0.184715,
      "area": "West End",
      "district": "Kensington and Chelsea",
      "plz": "SW10 9HY"
    },
    {
      "name": "Chelsea Physic Garden",
      "lat": 51.484858,
      "lng": -0.162682,
      "area": "West End",
      "district": "Kensington and Chelsea"
    },
    {
      "name": "Chelsea Space",
      "lat": 51.489925,
      "lng": -0.126655,
      "area": "West End",
      "district": "Westminster"
    },
    {
      "name": "Chris Beetles",
      "lat": 51.506615,
      "lng": -0.136678,
      "area": "West End",
      "district": "Westminster"
    },
    {
      "name": "Colnaghi",
      "lat": 51.50855,
      "lng": -0.138992,
      "area": "West End",
      "district": "Westminster"
    },
    {
      "name": "Crane Kalman",
      "lat": 51.497459,
      "lng": -0.165726,
      "area": "West End",
      "district": "Kensington and Chelsea"
    },
    {
      "name": "D-Contemporary",
      "lat": 51.50903,
      "lng": -0.14148,
      "area": "West End",
      "district": "Westminster"
    },
    {
      "name": "DADA Gallery",
      "lat": 51.495116,
      "lng": -0.174602,
      "area": "West End",
      "district": "Kensington and Chelsea"
    },
    {
      "name": "David Gill",
      "lat": 51.506261,
      "lng": -0.135338,
      "area": "West End",
      "district": "Westminster"
    },
    {
      "name": "David Zwimer",
      "lat": 51.508966,
      "lng": -0.141425,
      "area": "West End",
      "district": "Westminster"
    },
    {
      "name": "Delahunty Fine Art",
      "lat": 51.51078,
      "lng": -0.144735,
      "area": "West End",
      "district": "Westminster",
      "plz": "W1J 6QP"
    },
    {
      "name": "Design Museum",
      "lat": 51.499363,
      "lng": -0.198585,
      "area": "West End",
      "district": "Kensington and Chelsea"
    },
    {
      "name": "Eclectic Gallery",
      "lat": 51.517255,
      "lng": -0.135147,
      "area": "West End",
      "district": "Westminster",
      "plz": "W1T 1PB"
    },
    {
      "name": "Eden Gallery",
      "lat": 51.513602,
      "lng": -0.14635,
      "area": "West End",
      "district": "Westminster",
      "plz": "W1S 1ST"
    },
    {
      "name": "Erskine Hall & Coe",
      "lat": 51.508567,
      "lng": -0.140087,
      "area": "West End",
      "district": "Westminster"
    },
    {
      "name": "Fashion Space Gallery",
      "lat": 51.515131,
      "lng": -0.141693,
      "area": "West End",
      "district": "Westminster"
    },
    {
      "name": "Fiumano Fine Art",
      "lat": 51.513925,
      "lng": -0.163911,
      "area": "West End",
      "district": "Westminster"
    },
    {
      "name": "Flowers Gallery Central",
      "lat": 51.509627,
      "lng": -0.139453,
      "area": "West End",
      "district": "Westminster"
    },
    {
      "name": "Flying Colours Gallery",
      "lat": 51.488304,
      "lng": -0.164609,
      "area": "West End",
      "district": "Kensington and Chelsea"
    },
    {
      "name": "Frith Street Gallery",
      "lat": 51.510687,
      "lng": -0.135417,
      "area": "West End",
      "district": "Westminster"
    },
    {
      "name": "Frith Street Gallery Soho Square",
      "lat": 51.514213,
      "lng": -0.132158,
      "area": "West End",
      "district": "Westminster",
      "plz": "W1D 3JJ"
    },
    {
      "name": "Gagosian Gallery 2",
      "lat": 51.510543,
      "lng": -0.146161,
      "area": "West End",
      "district": "Westminster"
    },
    {
      "name": "Galerie Max Hetzler",
      "lat": 51.5081,
      "lng": -0.14205,
      "area": "West End",
      "district": "Westminster"
    },
    {
      "name": "Galeries Bartoux",
      "lat": 51.513036,
      "lng": -0.144603,
      "area": "West End",
      "district": "Westminster"
    },
    {
      "name": "Gazelli Art House",
      "lat": 51.507814,
      "lng": -0.140809,
      "area": "West End",
      "district": "Westminster"
    },
    {
      "name": "Goodman Gallery",
      "lat": 51.510257,
      "lng": -0.141269,
      "area": "West End",
      "district": "Westminster"
    },
    {
      "name": "Graham Hunter Gallery",
      "lat": 51.519438,
      "lng": -0.155342,
      "area": "West End",
      "district": "Westminster"
    },
    {
      "name": "Guards Museum",
      "lat": 51.499097,
      "lng": -0.136697,
      "area": "West End",
      "district": "Westminster"
    },
    {
      "name": "HQS Wellington",
      "lat": 51.510633,
      "lng": -0.112417,
      "area": "West End",
      "district": "Westminster",
      "plz": "WC2R 2PN"
    },
    {
      "name": "Hackelbury",
      "lat": 51.498522,
      "lng": -0.183766,
      "area": "West End",
      "district": "Kensington and Chelsea"
    },
    {
      "name": "Halcyon Gallery I",
      "lat": 51.510888,
      "lng": -0.142399,
      "area": "West End",
      "district": "Westminster"
    },
    {
      "name": "Hamiltons Gallery",
      "lat": 51.510119,
      "lng": -0.148368,
      "area": "West End",
      "district": "Westminster"
    },
    {
      "name": "Hauser & Wirth 2",
      "lat": 51.511485,
      "lng": -0.139218,
      "area": "West End",
      "district": "Westminster"
    },
    {
      "name": "Hayward Gallery",
      "lat": 51.505621,
      "lng": -0.113862,
      "area": "West End",
      "district": "Lambeth"
    },
    {
      "name": "Hazlitt Holland-Hibbert",
      "lat": 51.506479,
      "lng": -0.138353,
      "area": "West End",
      "district": "Westminster"
    },
    {
      "name": "Herald St (Camden)",
      "lat": 51.517728,
      "lng": -0.125326,
      "area": "West End",
      "district": "Camden",
      "plz": "WC1A 1LY"
    },
    {
      "name": "Hignell Gallery",
      "lat": 51.506319,
      "lng": -0.146991,
      "area": "West End",
      "district": "Westminster"
    },
    {
      "name": "Holtermann Fine Art",
      "lat": 51.510531,
      "lng": -0.141517,
      "area": "West End",
      "district": "Westminster"
    },
    {
      "name": "Hunterian Museum at the Royal College of Surgeons",
      "lat": 51.514774,
      "lng": -0.114292,
      "area": "West End",
      "district": "Westminster"
    },
    {
      "name": "Huxley-Parlour",
      "lat": 51.509189,
      "lng": -0.137436,
      "area": "West End",
      "district": "Westminster"
    },
    {
      "name": "IONE & MANN",
      "lat": 51.495116,
      "lng": -0.174602,
      "area": "West End",
      "district": "Kensington and Chelsea"
    },
    {
      "name": "Imitate Modern",
      "lat": 51.505923,
      "lng": -0.145238,
      "area": "West End",
      "district": "Westminster"
    },
    {
      "name": "Institute of Contemporary Arts",
      "lat": 51.506388,
      "lng": -0.130922,
      "area": "West End",
      "district": "Westminster",
      "plz": "SW1Y 5AH"
    },
    {
      "name": "Institute of International Visual Arts",
      "lat": 51.490553,
      "lng": -0.129265,
      "area": "West End",
      "district": "Westminster",
      "plz": "SW1P 4JU"
    },
    {
      "name": "JD Malat Gallery",
      "lat": 51.511952,
      "lng": -0.147772,
      "area": "West End",
      "district": "Westminster"
    },
    {
      "name": "Jack Bell",
      "lat": 51.507762,
      "lng": -0.137047,
      "area": "West End",
      "district": "Westminster"
    },
    {
      "name": "James Hyman Fine Art",
      "lat": 51.512573,
      "lng": -0.143855,
      "area": "West End",
      "district": "Westminster",
      "plz": "W1S 1AY"
    },
    {
      "name": "Japanese Gallery",
      "lat": 51.504813,
      "lng": -0.192206,
      "area": "West End",
      "district": "Kensington and Chelsea"
    },
    {
      "name": "Karsten Schubert London",
      "lat": 51.513081,
      "lng": -0.136196,
      "area": "West End",
      "district": "Westminster"
    },
    {
      "name": "Kensington Palace (State Apartments and Royal Ceremon",
      "lat": 51.504688,
      "lng": -0.186447,
      "area": "West End",
      "district": "Kensington and Chelsea"
    },
    {
      "name": "LAMB",
      "lat": 51.512205,
      "lng": -0.142732,
      "area": "West End",
      "district": "Westminster"
    },
    {
      "name": "LGDR",
      "lat": 51.509455,
      "lng": -0.141143,
      "area": "West End",
      "district": "Westminster"
    },
    {
      "name": "LUNGLEY Gallery",
      "lat": 51.517477,
      "lng": -0.141768,
      "area": "West End",
      "district": "Westminster"
    },
    {
      "name": "Lehmann Maupin",
      "lat": 51.494873,
      "lng": -0.174582,
      "area": "West End",
      "district": "Kensington and Chelsea"
    },
    {
      "name": "Leighton House Museum",
      "lat": 51.498076,
      "lng": -0.201522,
      "area": "West End",
      "district": "Kensington and Chelsea"
    },
    {
      "name": "Library and Museum of Freemasonry",
      "lat": 51.514651,
      "lng": -0.119529,
      "area": "West End",
      "district": "Camden"
    },
    {
      "name": "London Transport Museum",
      "lat": 51.512123,
      "lng": -0.121247,
      "area": "West End",
      "district": "Westminster"
    },
    {
      "name": "Luxembourg + Co.",
      "lat": 51.510409,
      "lng": -0.13949,
      "area": "West End",
      "district": "Westminster"
    },
    {
      "name": "Lyndsey Ingram",
      "lat": 51.51115,
      "lng": -0.14527,
      "area": "West End",
      "district": "Westminster"
    },
    {
      "name": "MASSIMODECARLO",
      "lat": 51.509755,
      "lng": -0.15217,
      "area": "West End",
      "district": "Westminster"
    },
    {
      "name": "Maddox Gallery",
      "lat": 51.51331,
      "lng": -0.141563,
      "area": "West End",
      "district": "Westminster"
    },
    {
      "name": "Mall Galleries",
      "lat": 51.506709,
      "lng": -0.130174,
      "area": "West End",
      "district": "Westminster",
      "plz": "SW1Y 5AS"
    },
    {
      "name": "Mark Gallery",
      "lat": 51.514366,
      "lng": -0.163951,
      "area": "West End",
      "district": "Westminster"
    },
    {
      "name": "Marlborough Fine Art",
      "lat": 51.50805,
      "lng": -0.139272,
      "area": "West End",
      "district": "Westminster"
    },
    {
      "name": "Maximilian William",
      "lat": 51.517823,
      "lng": -0.139188,
      "area": "West End",
      "district": "Westminster"
    },
    {
      "name": "Mazzoleni",
      "lat": 51.50906,
      "lng": -0.140597,
      "area": "West End",
      "district": "Westminster"
    },
    {
      "name": "Messum's",
      "lat": 51.509966,
      "lng": -0.139828,
      "area": "West End",
      "district": "Westminster"
    },
    {
      "name": "Michael Faraday Museum at the Royal Institution",
      "lat": 51.509435,
      "lng": -0.140974,
      "area": "West End",
      "district": "Westminster"
    },
    {
      "name": "Michael Werner Gallery",
      "lat": 51.510845,
      "lng": -0.154493,
      "area": "West End",
      "district": "Westminster"
    },
    {
      "name": "Modern Art",
      "lat": 51.506691,
      "lng": -0.138114,
      "area": "West End",
      "district": "Westminster"
    },
    {
      "name": "Muccaccia Gallery London",
      "lat": 51.514255,
      "lng": -0.145545,
      "area": "West End",
      "district": "Westminster",
      "plz": "W1S 1AL"
    },
    {
      "name": "Museum of the Royal Philatelic Society London",
      "lat": 51.520967,
      "lng": -0.148505,
      "area": "West End",
      "district": "Westminster"
    },
    {
      "name": "National Army Museum",
      "lat": 51.485716,
      "lng": -0.15876,
      "area": "West End",
      "district": "Kensington and Chelsea"
    },
    {
      "name": "National Gallery",
      "lat": 51.508587,
      "lng": -0.126077,
      "area": "West End",
      "district": "Westminster"
    },
    {
      "name": "National Portrait Gallery",
      "lat": 51.508887,
      "lng": -0.126872,
      "area": "West End",
      "district": "Westminster"
    },
    {
      "name": "Natural History Museum",
      "lat": 51.496052,
      "lng": -0.175292,
      "area": "West End",
      "district": "Kensington and Chelsea"
    },
    {
      "name": "Niru Ratm",
      "lat": 51.512796,
      "lng": -0.139206,
      "area": "West End",
      "district": "Westminster"
    },
    {
      "name": "No.9 Cork Street",
      "lat": 51.510235,
      "lng": -0.141587,
      "area": "West End",
      "district": "Westminster"
    },
    {
      "name": "Olivier Malingue",
      "lat": 51.510988,
      "lng": -0.142467,
      "area": "West End",
      "district": "Westminster"
    },
    {
      "name": "Opera Gallery",
      "lat": 51.511972,
      "lng": -0.144471,
      "area": "West End",
      "district": "Westminster"
    },
    {
      "name": "PATERSON ZEVI",
      "lat": 51.51226,
      "lng": -0.14836,
      "area": "West End",
      "district": "Westminster"
    },
    {
      "name": "Pace London 1",
      "lat": 51.513919,
      "lng": -0.143094,
      "area": "West End",
      "district": "Westminster",
      "plz": "W1S 1HQ"
    },
    {
      "name": "Paisnel Gallery",
      "lat": 51.506245,
      "lng": -0.136578,
      "area": "West End",
      "district": "Westminster"
    },
    {
      "name": "Panter and Hall",
      "lat": 51.507127,
      "lng": -0.133312,
      "area": "West End",
      "district": "Westminster",
      "plz": "SW1Y 5LU"
    },
    {
      "name": "Paradise Row",
      "lat": 51.510661,
      "lng": -0.146887,
      "area": "West End",
      "district": "Westminster",
      "plz": "W1K 3PA"
    },
    {
      "name": "Parafin Gallery",
      "lat": 51.513926,
      "lng": -0.14749,
      "area": "West End",
      "district": "Westminster"
    },
    {
      "name": "Paul Stolper",
      "lat": 51.51791,
      "lng": -0.126039,
      "area": "West End",
      "district": "Camden"
    },
    {
      "name": "Photographer's Gallery",
      "lat": 51.514925,
      "lng": -0.139047,
      "area": "West End",
      "district": "Westminster",
      "plz": "W1F 7LW"
    },
    {
      "name": "Pi Artworks",
      "lat": 51.515903,
      "lng": -0.13653,
      "area": "West End",
      "district": "Westminster"
    },
    {
      "name": "Pilar Corrias",
      "lat": 51.515895,
      "lng": -0.136617,
      "area": "West End",
      "district": "Westminster"
    },
    {
      "name": "Pilar Corrias Savile Row",
      "lat": 51.510409,
      "lng": -0.13949,
      "area": "West End",
      "district": "Westminster",
      "plz": "W1S 3PA"
    },
    {
      "name": "Pippy Houldsworth Gallery",
      "lat": 51.511055,
      "lng": -0.139421,
      "area": "West End",
      "district": "Westminster"
    },
    {
      "name": "Pontone Gallery",
      "lat": 51.517627,
      "lng": -0.135939,
      "area": "West End",
      "district": "Westminster",
      "plz": "W1T 3DB"
    },
    {
      "name": "Queen's Gallery",
      "lat": 51.499715,
      "lng": -0.142807,
      "area": "West End",
      "district": "Westminster"
    },
    {
      "name": "RIBA Drawings and Archives Collections",
      "lat": 51.49639,
      "lng": -0.170521,
      "area": "West End",
      "district": "Kensington and Chelsea"
    },
    {
      "name": "Rhodes Contemporary Art",
      "lat": 51.515427,
      "lng": -0.12764,
      "area": "West End",
      "district": "Camden",
      "plz": "WC2H 8DA"
    },
    {
      "name": "Richard Green 1",
      "lat": 51.510805,
      "lng": -0.142287,
      "area": "West End",
      "district": "Westminster"
    },
    {
      "name": "Richard Green 2",
      "lat": 51.511238,
      "lng": -0.142045,
      "area": "West End",
      "district": "Westminster"
    },
    {
      "name": "Richard Saltoun Gallery",
      "lat": 51.50805,
      "lng": -0.142123,
      "area": "West End",
      "district": "Westminster"
    },
    {
      "name": "Richard Young Gallery",
      "lat": 51.5028,
      "lng": -0.19055,
      "area": "West End",
      "district": "Kensington and Chelsea"
    },
    {
      "name": "Rodeo",
      "lat": 51.51093,
      "lng": -0.14568,
      "area": "West End",
      "district": "Westminster"
    },
    {
      "name": "Ronchini Gallery",
      "lat": 51.51416,
      "lng": -0.14626,
      "area": "West End",
      "district": "Westminster",
      "plz": "W1S 1AN"
    },
    {
      "name": "Royal Academy of Arts",
      "lat": 51.508588,
      "lng": -0.137996,
      "area": "West End",
      "district": "Westminster"
    },
    {
      "name": "Royal College of Music Museum of Instruments",
      "lat": 51.498769,
      "lng": -0.175313,
      "area": "West End",
      "district": "Westminster"
    },
    {
      "name": "Saatchi Gallery",
      "lat": 51.490093,
      "lng": -0.157118,
      "area": "West End",
      "district": "Kensington and Chelsea"
    },
    {
      "name": "Saatchi Gallery",
      "lat": 51.490723,
      "lng": -0.158802,
      "area": "West End",
      "district": "Kensington and Chelsea",
      "plz": "SW3 4RY"
    },
    {
      "name": "Saatchi Yates",
      "lat": 51.51034,
      "lng": -0.141957,
      "area": "West End",
      "district": "Westminster"
    },
    {
      "name": "Sadie Coles HQ",
      "lat": 51.511799,
      "lng": -0.13749,
      "area": "West End",
      "district": "Westminster"
    },
    {
      "name": "Sadie Coles HQ Brury Street",
      "lat": 51.506691,
      "lng": -0.138114,
      "area": "West End",
      "district": "Westminster",
      "plz": "SW1Y 6AB"
    },
    {
      "name": "Sadie Coles HQ Davies Street",
      "lat": 51.508058,
      "lng": -0.149965,
      "area": "West End",
      "district": "Westminster"
    },
    {
      "name": "Serpentine Gallery",
      "lat": 51.504279,
      "lng": -0.173407,
      "area": "West End",
      "district": "Westminster"
    },
    {
      "name": "Serpentine North Gallery",
      "lat": 51.50704,
      "lng": -0.1713,
      "area": "West End",
      "district": "Westminster",
      "plz": "W2 2AR"
    },
    {
      "name": "Serpentine South Gallery",
      "lat": 51.504789,
      "lng": -0.175008,
      "area": "West End",
      "district": "Westminster",
      "plz": "W2 3XA"
    },
    {
      "name": "Simon Lee Gallery",
      "lat": 51.508216,
      "lng": -0.14298,
      "area": "West End",
      "district": "Westminster"
    },
    {
      "name": "Sims Reed Gallery",
      "lat": 51.506381,
      "lng": -0.137207,
      "area": "West End",
      "district": "Westminster"
    },
    {
      "name": "Sir John Soane's Museum",
      "lat": 51.516482,
      "lng": -0.115936,
      "area": "West End",
      "district": "Camden"
    },
    {
      "name": "Skarstedt Gallery",
      "lat": 51.506607,
      "lng": -0.139028,
      "area": "West End",
      "district": "Westminster"
    },
    {
      "name": "Sladmore",
      "lat": 51.507247,
      "lng": -0.13795,
      "area": "West End",
      "district": "Westminster"
    },
    {
      "name": "Spencer House",
      "lat": 51.505151,
      "lng": -0.140252,
      "area": "West End",
      "district": "Westminster",
      "plz": "SW1A 1NR"
    },
    {
      "name": "Sprovieri",
      "lat": 51.510616,
      "lng": -0.138302,
      "area": "West End",
      "district": "Westminster"
    },
    {
      "name": "Spr\u00c3\u00bcth Magers",
      "lat": 51.509481,
      "lng": -0.142168,
      "area": "West End",
      "district": "Westminster"
    },
    {
      "name": "Stephen Friedman Gallery",
      "lat": 51.510608,
      "lng": -0.141255,
      "area": "West End",
      "district": "Westminster"
    },
    {
      "name": "Stern Pissarro Gallery",
      "lat": 51.506071,
      "lng": -0.139249,
      "area": "West End",
      "district": "Westminster"
    },
    {
      "name": "TAFETA",
      "lat": 51.51794,
      "lng": -0.12734,
      "area": "West End",
      "district": "Camden"
    },
    {
      "name": "Tanya Baxter Contemporary",
      "lat": 51.483214,
      "lng": -0.17777,
      "area": "West End",
      "district": "Kensington and Chelsea",
      "plz": "SW10 0LJ"
    },
    {
      "name": "Tate Britain",
      "lat": 51.490358,
      "lng": -0.1256,
      "area": "West End",
      "district": "Westminster"
    },
    {
      "name": "Thaddeus Ropac",
      "lat": 51.508497,
      "lng": -0.142537,
      "area": "West End",
      "district": "Westminster"
    },
    {
      "name": "The Aram Gallery",
      "lat": 51.5133,
      "lng": -0.11885,
      "area": "West End",
      "district": "Westminster"
    },
    {
      "name": "The Artist Room",
      "lat": 51.511005,
      "lng": -0.1368,
      "area": "West End",
      "district": "Westminster"
    },
    {
      "name": "The Cartoon Museum",
      "lat": 51.517581,
      "lng": -0.13865,
      "area": "West End",
      "district": "Westminster",
      "plz": "W1A 3AE"
    },
    {
      "name": "The Clockmakers' Museum",
      "lat": 51.496784,
      "lng": -0.174917,
      "area": "West End",
      "district": "Kensington and Chelsea"
    },
    {
      "name": "The Courtauld Gallery",
      "lat": 51.510509,
      "lng": -0.11637,
      "area": "West End",
      "district": "Westminster"
    },
    {
      "name": "The Dot Project",
      "lat": 51.489283,
      "lng": -0.173747,
      "area": "West End",
      "district": "Kensington and Chelsea"
    },
    {
      "name": "The Fine Art Society",
      "lat": 51.513413,
      "lng": -0.13895,
      "area": "West End",
      "district": "Westminster",
      "plz": "W1F 7DE"
    },
    {
      "name": "The Foundry Gallery",
      "lat": 51.483876,
      "lng": -0.170751,
      "area": "West End",
      "district": "Kensington and Chelsea"
    },
    {
      "name": "The Gallery of Everything",
      "lat": 51.518587,
      "lng": -0.154551,
      "area": "West End",
      "district": "Westminster"
    },
    {
      "name": "The Mosaic Rooms",
      "lat": 51.49487,
      "lng": -0.19535,
      "area": "West End",
      "district": "Kensington and Chelsea",
      "plz": "SW5 0SW"
    },
    {
      "name": "The Osborne Studio Gallery",
      "lat": 51.498694,
      "lng": -0.155013,
      "area": "West End",
      "district": "Westminster"
    },
    {
      "name": "The Science Museum",
      "lat": 51.496784,
      "lng": -0.174917,
      "area": "West End",
      "district": "Kensington and Chelsea"
    },
    {
      "name": "The Society of Antiquaries of London - Burlington Hou",
      "lat": 51.508222,
      "lng": -0.138169,
      "area": "West End",
      "district": "Westminster"
    },
    {
      "name": "The Wallace Collection",
      "lat": 51.516659,
      "lng": -0.151318,
      "area": "West End",
      "district": "Westminster"
    },
    {
      "name": "Thomas Dane Gallery",
      "lat": 51.506811,
      "lng": -0.135964,
      "area": "West End",
      "district": "Westminster"
    },
    {
      "name": "Timothy Taylor Gallery",
      "lat": 51.507277,
      "lng": -0.144431,
      "area": "West End",
      "district": "Westminster",
      "plz": "W1J 8BG"
    },
    {
      "name": "Tsivrikos Shake",
      "lat": 51.513874,
      "lng": -0.146469,
      "area": "West End",
      "district": "Westminster",
      "plz": "W1S 1SN"
    },
    {
      "name": "Unit London",
      "lat": 51.513457,
      "lng": -0.142897,
      "area": "West End",
      "district": "Westminster"
    },
    {
      "name": "Victoria and Albert Museum",
      "lat": 51.496432,
      "lng": -0.170624,
      "area": "West End",
      "district": "Kensington and Chelsea"
    },
    {
      "name": "Vigo Gallery",
      "lat": 51.507811,
      "lng": -0.137305,
      "area": "West End",
      "district": "Westminster"
    },
    {
      "name": "Waddington Custot Galleries",
      "lat": 51.5096,
      "lng": -0.140016,
      "area": "West End",
      "district": "Westminster"
    },
    {
      "name": "White Cube",
      "lat": 51.507101,
      "lng": -0.135578,
      "area": "West End",
      "district": "Westminster"
    },
    {
      "name": "White Cube Mason's Yard",
      "lat": 51.507612,
      "lng": -0.137183,
      "area": "West End",
      "district": "Westminster",
      "plz": "SW1Y 6BU"
    },
    {
      "name": "Willow Gallery",
      "lat": 51.506838,
      "lng": -0.136402,
      "area": "West End",
      "district": "Westminster"
    },
    {
      "name": "Workplace Gallery",
      "lat": 51.516225,
      "lng": -0.142756,
      "area": "West End",
      "district": "Westminster",
      "plz": "W1G 0JH"
    },
    {
      "name": "Yield Gallery",
      "lat": 51.51513,
      "lng": -0.12946,
      "area": "West End",
      "district": "Camden",
      "plz": "WC2H 8LS"
    },
    {
      "name": "Zari Gallery",
      "lat": 51.517664,
      "lng": -0.136009,
      "area": "West End",
      "district": "Westminster",
      "plz": "W1T 3EJ"
    },
    {
      "name": "ammann // projects",
      "lat": 51.495116,
      "lng": -0.174602,
      "area": "West End",
      "district": "Kensington and Chelsea"
    },
    {
      "name": "hmad Projects",
      "lat": 51.510547,
      "lng": -0.141949,
      "area": "West End",
      "district": "Westminster"
    }
  ],
  "agencies": [
    {
      "name": "AForce London",
      "lat": 51.3844,
      "lng": -0.22369,
      "area": "Brixton",
      "district": "Merton"
    },
    {
      "name": "Clockwork Studios",
      "lat": 51.46662,
      "lng": -0.09846,
      "area": "Brixton",
      "district": "Lambeth"
    },
    {
      "name": "Eden Studio",
      "lat": 51.411675,
      "lng": -0.185121,
      "area": "Brixton",
      "district": "Merton"
    },
    {
      "name": "Guava London Ltd",
      "lat": 51.458442,
      "lng": -0.114142,
      "area": "Brixton",
      "district": "Lambeth"
    },
    {
      "name": "Sienna Couture",
      "lat": 51.477477,
      "lng": -0.143902,
      "area": "Brixton",
      "district": "Wandsworth"
    },
    {
      "name": "Double Stitches",
      "lat": 51.60994,
      "lng": -0.13591,
      "area": "Camden",
      "district": "Haringey"
    },
    {
      "name": "Grade House",
      "lat": 51.535366,
      "lng": -0.298903,
      "area": "Camden",
      "district": "Brent"
    },
    {
      "name": "Intimate Apparel Samples",
      "lat": 51.568037,
      "lng": -0.231694,
      "area": "Camden",
      "district": "Brent"
    },
    {
      "name": "London Sewing Services",
      "lat": 51.601331,
      "lng": -0.11282,
      "area": "Camden",
      "district": "Haringey"
    },
    {
      "name": "Park Royal Works",
      "lat": 51.52559,
      "lng": -0.26586,
      "area": "Camden",
      "district": "Ealing"
    },
    {
      "name": "Plus Samples Ltd",
      "lat": 51.546993,
      "lng": -0.233754,
      "area": "Camden",
      "district": "Brent"
    },
    {
      "name": "Sample House",
      "lat": 51.535364,
      "lng": -0.298926,
      "area": "Camden",
      "district": "Brent",
      "plz": "HA0 1DX"
    },
    {
      "name": "Sharp Cut",
      "lat": 51.508417,
      "lng": -0.19961,
      "area": "Camden",
      "district": "Kensington and Chelsea"
    },
    {
      "name": "Tanya Dimitrova Ltd",
      "lat": 51.530831,
      "lng": -0.207491,
      "area": "Camden",
      "district": "Westminster"
    },
    {
      "name": "Threads London Limited",
      "lat": 51.57447,
      "lng": -0.414279,
      "area": "Camden",
      "district": "Hillingdon"
    },
    {
      "name": "Tottex",
      "lat": 51.59426,
      "lng": -0.113904,
      "area": "Camden",
      "district": "Haringey"
    },
    {
      "name": "Unlimited Fashion",
      "lat": 51.610205,
      "lng": -0.136341,
      "area": "Camden",
      "district": "Haringey"
    },
    {
      "name": "Cockpit Bloomsbury",
      "lat": 51.521494,
      "lng": -0.116206,
      "area": "King's Cross",
      "district": "Camden"
    },
    {
      "name": "Havas London",
      "lat": 51.530194,
      "lng": -0.128737,
      "area": "King's Cross",
      "district": "Inferred central placement"
    },
    {
      "name": "Nylander Couture",
      "lat": 51.541806,
      "lng": -0.095353,
      "area": "King's Cross",
      "district": "Islington"
    },
    {
      "name": "Publicis London",
      "lat": 51.533476,
      "lng": -0.122212,
      "area": "King's Cross",
      "district": "Inferred central placement"
    },
    {
      "name": "R/GA London",
      "lat": 51.527794,
      "lng": -0.125016,
      "area": "King's Cross",
      "district": "Inferred central placement"
    },
    {
      "name": "The Albion Knitting Company",
      "lat": 51.577336,
      "lng": -0.091516,
      "area": "King's Cross",
      "district": "Haringey"
    },
    {
      "name": "VCCP",
      "lat": 51.532241,
      "lng": -0.125627,
      "area": "King's Cross",
      "district": "Inferred central placement"
    },
    {
      "name": "Cockpit Deptford",
      "lat": 51.478626,
      "lng": -0.020678,
      "area": "Peckham",
      "district": "Lewisham"
    },
    {
      "name": "Craft Central",
      "lat": 51.48879,
      "lng": -0.019186,
      "area": "Peckham",
      "district": "Tower Hamlets",
      "plz": "E14 3AE"
    },
    {
      "name": "Creative Fashion Services",
      "lat": 51.484106,
      "lng": -0.050344,
      "area": "Peckham",
      "district": "Lewisham"
    },
    {
      "name": "Deptford Foundry",
      "lat": 51.481674,
      "lng": -0.035063,
      "area": "Peckham",
      "district": "Lewisham",
      "plz": "SE14 6BN"
    },
    {
      "name": "London Pattern Bureau",
      "lat": 51.492668,
      "lng": -0.063405,
      "area": "Peckham",
      "district": "Southwark"
    },
    {
      "name": "S.A.M Creations",
      "lat": 51.458551,
      "lng": 0.005513,
      "area": "Peckham",
      "district": "Lewisham"
    },
    {
      "name": "AMV BBDO",
      "lat": 51.522124,
      "lng": -0.076443,
      "area": "Shoreditch",
      "district": "Inferred central placement"
    },
    {
      "name": "Apollo Star",
      "lat": 51.591898,
      "lng": -0.05621,
      "area": "Shoreditch",
      "district": "Haringey"
    },
    {
      "name": "CMT London",
      "lat": 51.509141,
      "lng": -0.061639,
      "area": "Shoreditch",
      "district": "Tower Hamlets"
    },
    {
      "name": "Cartal LTD",
      "lat": 51.607279,
      "lng": -0.058658,
      "area": "Shoreditch",
      "district": "Haringey"
    },
    {
      "name": "Classic Cuts",
      "lat": 51.516293,
      "lng": -0.066136,
      "area": "Shoreditch",
      "district": "Tower Hamlets"
    },
    {
      "name": "Clothing Manufacturers UK",
      "lat": 51.592171,
      "lng": -0.056458,
      "area": "Shoreditch",
      "district": "Haringey"
    },
    {
      "name": "Cock & Bull Menswear",
      "lat": 51.519302,
      "lng": -0.070431,
      "area": "Shoreditch",
      "district": "Tower Hamlets"
    },
    {
      "name": "CreateLab by Nosakhari",
      "lat": 51.545479,
      "lng": -0.046408,
      "area": "Shoreditch",
      "district": "Hackney"
    },
    {
      "name": "Cross Spot Studio",
      "lat": 51.532524,
      "lng": -0.059707,
      "area": "Shoreditch",
      "district": "Tower Hamlets",
      "plz": "E2 9FP"
    },
    {
      "name": "Daas Trading London Ltd",
      "lat": 51.609905,
      "lng": -0.072816,
      "area": "Shoreditch",
      "district": "Enfield",
      "plz": "N18 1TP"
    },
    {
      "name": "Eurotrim Design Limited T\\A Julie Anna",
      "lat": 51.584546,
      "lng": -0.062457,
      "area": "Shoreditch",
      "district": "Haringey",
      "plz": "N15 4QL"
    },
    {
      "name": "Fabrications",
      "lat": 51.535932,
      "lng": -0.062318,
      "area": "Shoreditch",
      "district": "Hackney"
    },
    {
      "name": "Fashion Cube Ltd",
      "lat": 51.607263,
      "lng": -0.058648,
      "area": "Shoreditch",
      "district": "Haringey"
    },
    {
      "name": "Fashion Enter Ltd",
      "lat": 51.577037,
      "lng": -0.091327,
      "area": "Shoreditch",
      "district": "Haringey"
    },
    {
      "name": "Fashion clothing Factory",
      "lat": 51.584693,
      "lng": -0.063187,
      "area": "Shoreditch",
      "district": "Haringey"
    },
    {
      "name": "Fashionworks London",
      "lat": 51.518781,
      "lng": -0.089006,
      "area": "Shoreditch",
      "district": "City of London"
    },
    {
      "name": "Florentia Clothing Village",
      "lat": 51.576636,
      "lng": -0.088454,
      "area": "Shoreditch",
      "district": "Haringey"
    },
    {
      "name": "Forma Leather",
      "lat": 51.528121,
      "lng": -0.077802,
      "area": "Shoreditch",
      "district": "Hackney"
    },
    {
      "name": "Grey London",
      "lat": 51.524206,
      "lng": -0.074047,
      "area": "Shoreditch",
      "district": "Inferred central placement"
    },
    {
      "name": "Guney Dedsign",
      "lat": 51.609861,
      "lng": -0.075648,
      "area": "Shoreditch",
      "district": "Enfield"
    },
    {
      "name": "Ince Umbrellas",
      "lat": 51.53499,
      "lng": -0.054297,
      "area": "Shoreditch",
      "district": "Tower Hamlets"
    },
    {
      "name": "Loud Apparel Limited",
      "lat": 51.551215,
      "lng": -0.073298,
      "area": "Shoreditch",
      "district": "Hackney"
    },
    {
      "name": "MAES London",
      "lat": 51.58561,
      "lng": -0.06073,
      "area": "Shoreditch",
      "district": "Haringey"
    },
    {
      "name": "McCann London",
      "lat": 51.528653,
      "lng": -0.074659,
      "area": "Shoreditch",
      "district": "Inferred central placement"
    },
    {
      "name": "Ogilvy UK",
      "lat": 51.526076,
      "lng": -0.075576,
      "area": "Shoreditch",
      "district": "Inferred central placement"
    },
    {
      "name": "Orhan London Tailoring",
      "lat": 51.527114,
      "lng": -0.083856,
      "area": "Shoreditch",
      "district": "Hackney"
    },
    {
      "name": "Richmond Wear",
      "lat": 51.512683,
      "lng": -0.043157,
      "area": "Shoreditch",
      "district": "Tower Hamlets"
    },
    {
      "name": "Rize Designs Ltd",
      "lat": 51.61175,
      "lng": -0.075529,
      "area": "Shoreditch",
      "district": "Enfield"
    },
    {
      "name": "Rosamanda",
      "lat": 51.607463,
      "lng": -0.061514,
      "area": "Shoreditch",
      "district": "Haringey"
    },
    {
      "name": "Sophia Sampling & Production",
      "lat": 51.58539,
      "lng": -0.06078,
      "area": "Shoreditch",
      "district": "Haringey"
    },
    {
      "name": "The Sampling Unit Ltd",
      "lat": 51.576519,
      "lng": -0.087881,
      "area": "Shoreditch",
      "district": "Haringey"
    },
    {
      "name": "The Truman Brewery",
      "lat": 51.52084,
      "lng": -0.07209,
      "area": "Shoreditch",
      "district": "Tower Hamlets",
      "plz": "E1 6QR"
    },
    {
      "name": "The Whitechapel Workhouse",
      "lat": 51.518053,
      "lng": -0.063294,
      "area": "Shoreditch",
      "district": "Tower Hamlets"
    },